<?xml version="1.0" encoding="UTF-8"?>
<doc>
    <objects>
        <object class="WED_Root" id="1" parent_id="0">
            <sources/>
            <viewers/>
            <children>
                <child id="2"/>
                <child id="3"/>
                <child id="4"/>
            </children>
            <hierarchy name="root"/>
        </object>
        <object class="WED_ObjPlacement" id="65" parent_id="15">
            <sources/>
            <viewers/>
            <children/>
            <hierarchy hidden="0" locked="0" name="objects/vaca_2-vaca_20.obj"/>
            <point heading="157.99" latitude="41.244846265" longitude="1.562018387"/>
            <obj_placement custom_msl="0" msl="0.000" resource="objects/vaca_2-vaca_20.obj" show_level="2 A lot"/>
        </object>
        <object class="WED_RampPosition" id="9" parent_id="5">
            <sources/>
            <viewers/>
            <children/>
            <hierarchy hidden="0" locked="0" name="GA Ramp  1"/>
            <point heading="315.20" latitude="41.244386000" longitude="1.564041000"/>
            <ramp_start traffic="24" type="Misc"/>
        </object>
        <object class="WED_Select" id="2" parent_id="1">
            <sources/>
            <viewers/>
            <children/>
            <hierarchy name="selection"/>
            <selection>
                <sel id="5"/>
            </selection>
        </object>
        <object class="WED_KeyObjects" id="3" parent_id="1">
            <sources/>
            <viewers/>
            <children/>
            <hierarchy name="choices"/>
            <keys>
                <key id="5" name="airport"/>
            </keys>
        </object>
        <object class="WED_Group" id="4" parent_id="1">
            <sources/>
            <viewers/>
            <children>
                <child id="5"/>
                <child id="15"/>
            </children>
            <hierarchy hidden="0" locked="0" name="world"/>
        </object>
        <object class="WED_Airport" id="5" parent_id="4">
            <sources/>
            <viewers/>
            <children>
                <child id="6"/>
                <child id="9"/>
                <child id="10"/>
                <child id="11"/>
                <child id="12"/>
                <child id="13"/>
                <child id="14"/>
            </children>
            <hierarchy hidden="0" locked="0" name="Bellvei-El Vendrell"/>
            <airport elevation="88.7" has_atc="0" icao="LE02" kind="Airport"/>
            <WED_airport scenery_id="-1"/>
        </object>
        <object class="WED_Runway" id="6" parent_id="5">
            <sources/>
            <viewers/>
            <children>
                <child id="7"/>
                <child id="8"/>
            </children>
            <hierarchy hidden="0" locked="0" name="04/22"/>
            <line width="28.00"/>
            <runway REIL1="None" REIL2="None" TDZL1="0" TDZL2="0" app_lites1="None" app_lites2="None" blastpad1="0.0" blastpad2="0.0" center_lites="0" displaced1="0.0" displaced2="0.0" distance_signs="0" edge_lites="None" markings1="None" markings2="None" roughness="0.25" shoulder="None" surface="Dirt"/>
        </object>
        <object class="WED_RunwayNode" id="7" parent_id="6">
            <sources/>
            <viewers/>
            <children/>
            <hierarchy hidden="0" locked="0" name="unnamed entity"/>
            <point latitude="41.243508560" longitude="1.561842210"/>
        </object>
        <object class="WED_RunwayNode" id="8" parent_id="6">
            <sources/>
            <viewers/>
            <children/>
            <hierarchy hidden="0" locked="0" name="unnamed entity"/>
            <point latitude="41.246057440" longitude="1.564457790"/>
        </object>
        <object class="WED_RampPosition" id="10" parent_id="5">
            <sources/>
            <viewers/>
            <children/>
            <hierarchy hidden="0" locked="0" name="GA Ramp  2"/>
            <point heading="320.58" latitude="41.243546000" longitude="1.563115000"/>
            <ramp_start traffic="24" type="Misc"/>
        </object>
        <object class="WED_RampPosition" id="11" parent_id="5">
            <sources/>
            <viewers/>
            <children/>
            <hierarchy hidden="0" locked="0" name="GA Ramp  3"/>
            <point heading="10.08" latitude="41.243396000" longitude="1.562951000"/>
            <ramp_start traffic="24" type="Misc"/>
        </object>
        <object class="WED_RampPosition" id="12" parent_id="5">
            <sources/>
            <viewers/>
            <children/>
            <hierarchy hidden="0" locked="0" name="GA Ramp  4"/>
            <point heading="41.64" latitude="41.243534000" longitude="1.562783000"/>
            <ramp_start traffic="24" type="Misc"/>
        </object>
        <object class="WED_RampPosition" id="13" parent_id="5">
            <sources/>
            <viewers/>
            <children/>
            <hierarchy hidden="0" locked="0" name="GA Ramp  5"/>
            <point heading="317.81" latitude="41.243931000" longitude="1.563121000"/>
            <ramp_start traffic="24" type="Misc"/>
        </object>
        <object class="WED_TowerViewpoint" id="14" parent_id="5">
            <sources/>
            <viewers/>
            <children/>
            <hierarchy hidden="0" locked="0" name="Bellvei-El Vendrell Tower"/>
            <point latitude="41.244104000" longitude="1.563813000"/>
            <tower_viewpoint height="2"/>
        </object>
        <object class="WED_Group" id="15" parent_id="4">
            <sources/>
            <viewers/>
            <children>
                <child id="16"/>
                <child id="17"/>
                <child id="18"/>
                <child id="19"/>
                <child id="20"/>
                <child id="21"/>
                <child id="22"/>
                <child id="23"/>
                <child id="24"/>
                <child id="25"/>
                <child id="26"/>
                <child id="27"/>
                <child id="28"/>
                <child id="29"/>
                <child id="30"/>
                <child id="31"/>
                <child id="32"/>
                <child id="33"/>
                <child id="34"/>
                <child id="35"/>
                <child id="36"/>
                <child id="37"/>
                <child id="38"/>
                <child id="39"/>
                <child id="40"/>
                <child id="41"/>
                <child id="42"/>
                <child id="43"/>
                <child id="44"/>
                <child id="45"/>
                <child id="46"/>
                <child id="47"/>
                <child id="48"/>
                <child id="49"/>
                <child id="50"/>
                <child id="51"/>
                <child id="52"/>
                <child id="53"/>
                <child id="54"/>
                <child id="55"/>
                <child id="56"/>
                <child id="57"/>
                <child id="58"/>
                <child id="59"/>
                <child id="60"/>
                <child id="61"/>
                <child id="62"/>
                <child id="63"/>
                <child id="64"/>
                <child id="65"/>
                <child id="66"/>
                <child id="67"/>
                <child id="68"/>
                <child id="69"/>
                <child id="70"/>
                <child id="71"/>
                <child id="72"/>
                <child id="73"/>
                <child id="74"/>
                <child id="75"/>
                <child id="76"/>
                <child id="77"/>
                <child id="78"/>
                <child id="79"/>
                <child id="80"/>
                <child id="81"/>
                <child id="82"/>
                <child id="83"/>
                <child id="84"/>
                <child id="85"/>
                <child id="86"/>
                <child id="87"/>
                <child id="88"/>
                <child id="89"/>
                <child id="90"/>
            </children>
            <hierarchy hidden="0" locked="0" name="C:\X-Plane 10 Tests\Custom Scenery\LE02_EL_VENDRELL\Earth nav data\+40+000\+41+001.dsf"/>
        </object>
        <object class="WED_ObjPlacement" id="16" parent_id="15">
            <sources/>
            <viewers/>
            <children/>
            <hierarchy hidden="0" locked="0" name="objects/el_vendrell_LE02_background-el_vendrell_le02_background03.obj"/>
            <point heading="0.00" latitude="41.244213016" longitude="1.562462806"/>
            <obj_placement custom_msl="0" msl="0.000" resource="objects/el_vendrell_LE02_background-el_vendrell_le02_background03.obj" show_level="2 A lot"/>
        </object>
        <object class="WED_ObjPlacement" id="17" parent_id="15">
            <sources/>
            <viewers/>
            <children/>
            <hierarchy hidden="0" locked="0" name="objects/el_vendrell_LE02_background-el_vendrell_le02_background00.obj"/>
            <point heading="0.00" latitude="41.244213016" longitude="1.562462806"/>
            <obj_placement custom_msl="0" msl="0.000" resource="objects/el_vendrell_LE02_background-el_vendrell_le02_background00.obj" show_level="2 A lot"/>
        </object>
        <object class="WED_ObjPlacement" id="18" parent_id="15">
            <sources/>
            <viewers/>
            <children/>
            <hierarchy hidden="0" locked="0" name="objects/el_vendrell_LE02_background-el_vendrell_le02_background02.obj"/>
            <point heading="0.00" latitude="41.244213016" longitude="1.562462806"/>
            <obj_placement custom_msl="0" msl="0.000" resource="objects/el_vendrell_LE02_background-el_vendrell_le02_background02.obj" show_level="2 A lot"/>
        </object>
        <object class="WED_ObjPlacement" id="19" parent_id="15">
            <sources/>
            <viewers/>
            <children/>
            <hierarchy hidden="0" locked="0" name="objects/el_vendrell_LE02_background-el_vendrell_le02_background04.obj"/>
            <point heading="0.00" latitude="41.244213016" longitude="1.562462806"/>
            <obj_placement custom_msl="0" msl="0.000" resource="objects/el_vendrell_LE02_background-el_vendrell_le02_background04.obj" show_level="2 A lot"/>
        </object>
        <object class="WED_ObjPlacement" id="20" parent_id="15">
            <sources/>
            <viewers/>
            <children/>
            <hierarchy hidden="0" locked="0" name="objects/el_vendrell_LE02_background-el_vendrell_le02_background01.obj"/>
            <point heading="0.00" latitude="41.244213016" longitude="1.562462806"/>
            <obj_placement custom_msl="0" msl="0.000" resource="objects/el_vendrell_LE02_background-el_vendrell_le02_background01.obj" show_level="2 A lot"/>
        </object>
        <object class="WED_ObjPlacement" id="21" parent_id="15">
            <sources/>
            <viewers/>
            <children/>
            <hierarchy hidden="0" locked="0" name="objects/el_vendrell_LE02_granulado-el_vendrell_LE02_granulado.obj"/>
            <point heading="0.00" latitude="41.244586862" longitude="1.563599603"/>
            <obj_placement custom_msl="0" msl="0.000" resource="objects/el_vendrell_LE02_granulado-el_vendrell_LE02_granulado.obj" show_level="2 A lot"/>
        </object>
        <object class="WED_ObjPlacement" id="22" parent_id="15">
            <sources/>
            <viewers/>
            <children/>
            <hierarchy hidden="0" locked="0" name="objects/el_vendrell_LE02_granulado.obj"/>
            <point heading="0.00" latitude="41.244586862" longitude="1.563599603"/>
            <obj_placement custom_msl="0" msl="0.000" resource="objects/el_vendrell_LE02_granulado.obj" show_level="2 A lot"/>
        </object>
        <object class="WED_ObjPlacement" id="23" parent_id="15">
            <sources/>
            <viewers/>
            <children/>
            <hierarchy hidden="0" locked="0" name="objects/el_vendrell_LE02_lineas-el_vendrell_LE02_lineas.obj"/>
            <point heading="0.00" latitude="41.244586862" longitude="1.563599603"/>
            <obj_placement custom_msl="0" msl="0.000" resource="objects/el_vendrell_LE02_lineas-el_vendrell_LE02_lineas.obj" show_level="2 A lot"/>
        </object>
        <object class="WED_ObjPlacement" id="24" parent_id="15">
            <sources/>
            <viewers/>
            <children/>
            <hierarchy hidden="0" locked="0" name="lib/cars/car.obj"/>
            <point heading="329.00" latitude="41.243562600" longitude="1.563252461"/>
            <obj_placement custom_msl="0" msl="0.000" resource="lib/cars/car.obj" show_level="2 A lot"/>
        </object>
        <object class="WED_ObjPlacement" id="25" parent_id="15">
            <sources/>
            <viewers/>
            <children/>
            <hierarchy hidden="0" locked="0" name="lib/cars/car.obj"/>
            <point heading="358.99" latitude="41.243730449" longitude="1.563525216"/>
            <obj_placement custom_msl="0" msl="0.000" resource="lib/cars/car.obj" show_level="2 A lot"/>
        </object>
        <object class="WED_ObjPlacement" id="26" parent_id="15">
            <sources/>
            <viewers/>
            <children/>
            <hierarchy hidden="0" locked="0" name="objects/AB_Buildings08.obj"/>
            <point heading="138.89" latitude="41.244104295" longitude="1.563790341"/>
            <obj_placement custom_msl="0" msl="0.000" resource="objects/AB_Buildings08.obj" show_level="2 A lot"/>
        </object>
        <object class="WED_ObjPlacement" id="27" parent_id="15">
            <sources/>
            <viewers/>
            <children/>
            <hierarchy hidden="0" locked="0" name="objects/AB_Buildings08-jay_EZ_Sheds.obj"/>
            <point heading="138.89" latitude="41.244104295" longitude="1.563790341"/>
            <obj_placement custom_msl="0" msl="0.000" resource="objects/AB_Buildings08-jay_EZ_Sheds.obj" show_level="2 A lot"/>
        </object>
        <object class="WED_ObjPlacement" id="28" parent_id="15">
            <sources/>
            <viewers/>
            <children/>
            <hierarchy hidden="0" locked="0" name="objects/dab9276ef44c46e5a8254c0723b0c953.obj"/>
            <point heading="138.89" latitude="41.244588769" longitude="1.563607233"/>
            <obj_placement custom_msl="0" msl="0.000" resource="objects/dab9276ef44c46e5a8254c0723b0c953.obj" show_level="2 A lot"/>
        </object>
        <object class="WED_ObjPlacement" id="29" parent_id="15">
            <sources/>
            <viewers/>
            <children/>
            <hierarchy hidden="0" locked="0" name="objects/dab9276ef44c46e5a8254c0723b0c953-WINDSOCK.obj"/>
            <point heading="138.89" latitude="41.244588769" longitude="1.563607233"/>
            <obj_placement custom_msl="0" msl="0.000" resource="objects/dab9276ef44c46e5a8254c0723b0c953-WINDSOCK.obj" show_level="2 A lot"/>
        </object>
        <object class="WED_ObjPlacement" id="30" parent_id="15">
            <sources/>
            <viewers/>
            <children/>
            <hierarchy hidden="0" locked="0" name="objects/Furgoneta_AHS-Furgo1.obj"/>
            <point heading="309.00" latitude="41.244159609" longitude="1.563872358"/>
            <obj_placement custom_msl="0" msl="0.000" resource="objects/Furgoneta_AHS-Furgo1.obj" show_level="2 A lot"/>
        </object>
        <object class="WED_ObjPlacement" id="31" parent_id="15">
            <sources/>
            <viewers/>
            <children/>
            <hierarchy hidden="0" locked="0" name="objects/Furgoneta_AHS.obj"/>
            <point heading="309.00" latitude="41.244159609" longitude="1.563872358"/>
            <obj_placement custom_msl="0" msl="0.000" resource="objects/Furgoneta_AHS.obj" show_level="2 A lot"/>
        </object>
        <object class="WED_ObjPlacement" id="32" parent_id="15">
            <sources/>
            <viewers/>
            <children/>
            <hierarchy hidden="0" locked="0" name="objects/Furgoneta_AHS-Furgo2.obj"/>
            <point heading="309.00" latitude="41.244159609" longitude="1.563872358"/>
            <obj_placement custom_msl="0" msl="0.000" resource="objects/Furgoneta_AHS-Furgo2.obj" show_level="2 A lot"/>
        </object>
        <object class="WED_ObjPlacement" id="33" parent_id="15">
            <sources/>
            <viewers/>
            <children/>
            <hierarchy hidden="0" locked="0" name="objects/ezhangers14-REDHANGERCONCRETE.obj"/>
            <point heading="138.00" latitude="41.243837263" longitude="1.563118944"/>
            <obj_placement custom_msl="0" msl="0.000" resource="objects/ezhangers14-REDHANGERCONCRETE.obj" show_level="2 A lot"/>
        </object>
        <object class="WED_ObjPlacement" id="34" parent_id="15">
            <sources/>
            <viewers/>
            <children/>
            <hierarchy hidden="0" locked="0" name="objects/ezhangers14-REDHANGERCONCRETE.obj"/>
            <point heading="138.00" latitude="41.243930724" longitude="1.563254368"/>
            <obj_placement custom_msl="0" msl="0.000" resource="objects/ezhangers14-REDHANGERCONCRETE.obj" show_level="2 A lot"/>
        </object>
        <object class="WED_ObjPlacement" id="35" parent_id="15">
            <sources/>
            <viewers/>
            <children/>
            <hierarchy hidden="0" locked="0" name="objects/ezhangers14-redroofhanger1.obj"/>
            <point heading="138.00" latitude="41.243837263" longitude="1.563118944"/>
            <obj_placement custom_msl="0" msl="0.000" resource="objects/ezhangers14-redroofhanger1.obj" show_level="2 A lot"/>
        </object>
        <object class="WED_ObjPlacement" id="36" parent_id="15">
            <sources/>
            <viewers/>
            <children/>
            <hierarchy hidden="0" locked="0" name="objects/ezhangers14-redroofhanger1.obj"/>
            <point heading="138.00" latitude="41.243930724" longitude="1.563254368"/>
            <obj_placement custom_msl="0" msl="0.000" resource="objects/ezhangers14-redroofhanger1.obj" show_level="2 A lot"/>
        </object>
        <object class="WED_ObjPlacement" id="37" parent_id="15">
            <sources/>
            <viewers/>
            <children/>
            <hierarchy hidden="0" locked="0" name="objects/ezhangers14-redroofhanger2.obj"/>
            <point heading="138.00" latitude="41.243837263" longitude="1.563118944"/>
            <obj_placement custom_msl="0" msl="0.000" resource="objects/ezhangers14-redroofhanger2.obj" show_level="2 A lot"/>
        </object>
        <object class="WED_ObjPlacement" id="38" parent_id="15">
            <sources/>
            <viewers/>
            <children/>
            <hierarchy hidden="0" locked="0" name="objects/ezhangers14-redroofhanger2.obj"/>
            <point heading="138.00" latitude="41.243930724" longitude="1.563254368"/>
            <obj_placement custom_msl="0" msl="0.000" resource="objects/ezhangers14-redroofhanger2.obj" show_level="2 A lot"/>
        </object>
        <object class="WED_ObjPlacement" id="39" parent_id="15">
            <sources/>
            <viewers/>
            <children/>
            <hierarchy hidden="0" locked="0" name="objects/GA-Hangers_lib08-barrels.obj"/>
            <point heading="228.00" latitude="41.243650340" longitude="1.563359274"/>
            <obj_placement custom_msl="0" msl="0.000" resource="objects/GA-Hangers_lib08-barrels.obj" show_level="2 A lot"/>
        </object>
        <object class="WED_ObjPlacement" id="40" parent_id="15">
            <sources/>
            <viewers/>
            <children/>
            <hierarchy hidden="0" locked="0" name="objects/GA-Hangers_lib08-barrels.obj"/>
            <point heading="228.00" latitude="41.243755245" longitude="1.563036927"/>
            <obj_placement custom_msl="0" msl="0.000" resource="objects/GA-Hangers_lib08-barrels.obj" show_level="2 A lot"/>
        </object>
        <object class="WED_ObjPlacement" id="41" parent_id="15">
            <sources/>
            <viewers/>
            <children/>
            <hierarchy hidden="0" locked="0" name="objects/GA-Hangers_lib09-barrels.obj"/>
            <point heading="228.00" latitude="41.243665599" longitude="1.563393606"/>
            <obj_placement custom_msl="0" msl="0.000" resource="objects/GA-Hangers_lib09-barrels.obj" show_level="2 A lot"/>
        </object>
        <object class="WED_ObjPlacement" id="42" parent_id="15">
            <sources/>
            <viewers/>
            <children/>
            <hierarchy hidden="0" locked="0" name="objects/GA-Hangers_lib09-YELLPINE.obj"/>
            <point heading="228.00" latitude="41.243665599" longitude="1.563393606"/>
            <obj_placement custom_msl="0" msl="0.000" resource="objects/GA-Hangers_lib09-YELLPINE.obj" show_level="2 A lot"/>
        </object>
        <object class="WED_ObjPlacement" id="43" parent_id="15">
            <sources/>
            <viewers/>
            <children/>
            <hierarchy hidden="0" locked="0" name="objects/AirHispaniaSC_Banderas04-Texban_0070.obj"/>
            <point heading="318.89" latitude="41.244077592" longitude="1.563878080"/>
            <obj_placement custom_msl="0" msl="0.000" resource="objects/AirHispaniaSC_Banderas04-Texban_0070.obj" show_level="2 A lot"/>
        </object>
        <object class="WED_ObjPlacement" id="44" parent_id="15">
            <sources/>
            <viewers/>
            <children/>
            <hierarchy hidden="0" locked="0" name="objects/ICP_Bingo_4S_(Spain)_0070.obj"/>
            <point heading="258.00" latitude="41.243684672" longitude="1.563065537"/>
            <obj_placement custom_msl="0" msl="0.000" resource="objects/ICP_Bingo_4S_(Spain)_0070.obj" show_level="2 A lot"/>
        </object>
        <object class="WED_ObjPlacement" id="45" parent_id="15">
            <sources/>
            <viewers/>
            <children/>
            <hierarchy hidden="0" locked="0" name="objects/ICP_Bingo_4S_(Spain)-BINGO1_T_0070.obj"/>
            <point heading="258.00" latitude="41.243684672" longitude="1.563065537"/>
            <obj_placement custom_msl="0" msl="0.000" resource="objects/ICP_Bingo_4S_(Spain)-BINGO1_T_0070.obj" show_level="2 A lot"/>
        </object>
        <object class="WED_ObjPlacement" id="46" parent_id="15">
            <sources/>
            <viewers/>
            <children/>
            <hierarchy hidden="0" locked="0" name="objects/ICP_Bingo_4S_(Spain)-GLASS_T_0070.obj"/>
            <point heading="258.00" latitude="41.243684672" longitude="1.563065537"/>
            <obj_placement custom_msl="0" msl="0.000" resource="objects/ICP_Bingo_4S_(Spain)-GLASS_T_0070.obj" show_level="2 A lot"/>
        </object>
        <object class="WED_ObjPlacement" id="47" parent_id="15">
            <sources/>
            <viewers/>
            <children/>
            <hierarchy hidden="0" locked="0" name="objects/ICP_Bingo_4S_(Spain)-BINGO4_T_0070.obj"/>
            <point heading="258.00" latitude="41.243684672" longitude="1.563065537"/>
            <obj_placement custom_msl="0" msl="0.000" resource="objects/ICP_Bingo_4S_(Spain)-BINGO4_T_0070.obj" show_level="2 A lot"/>
        </object>
        <object class="WED_ObjPlacement" id="48" parent_id="15">
            <sources/>
            <viewers/>
            <children/>
            <hierarchy hidden="0" locked="0" name="objects/ICP_Bingo_4S_(Spain)-BINGO3_T_0070.obj"/>
            <point heading="258.00" latitude="41.243684672" longitude="1.563065537"/>
            <obj_placement custom_msl="0" msl="0.000" resource="objects/ICP_Bingo_4S_(Spain)-BINGO3_T_0070.obj" show_level="2 A lot"/>
        </object>
        <object class="WED_ObjPlacement" id="49" parent_id="15">
            <sources/>
            <viewers/>
            <children/>
            <hierarchy hidden="0" locked="0" name="objects/ICP_Bingo_4S_(Spain)-BINGO2_T_0070.obj"/>
            <point heading="258.00" latitude="41.243684672" longitude="1.563065537"/>
            <obj_placement custom_msl="0" msl="0.000" resource="objects/ICP_Bingo_4S_(Spain)-BINGO2_T_0070.obj" show_level="2 A lot"/>
        </object>
        <object class="WED_ObjPlacement" id="50" parent_id="15">
            <sources/>
            <viewers/>
            <children/>
            <hierarchy hidden="0" locked="0" name="objects/ICP_Bingo_4S_(Spain)-PILOTA_A_0070.obj"/>
            <point heading="258.00" latitude="41.243684672" longitude="1.563065537"/>
            <obj_placement custom_msl="0" msl="0.000" resource="objects/ICP_Bingo_4S_(Spain)-PILOTA_A_0070.obj" show_level="2 A lot"/>
        </object>
        <object class="WED_ObjPlacement" id="51" parent_id="15">
            <sources/>
            <viewers/>
            <children/>
            <hierarchy hidden="0" locked="0" name="objects/vaca_1-vaca4.obj"/>
            <point heading="288.00" latitude="41.244739452" longitude="1.562008850"/>
            <obj_placement custom_msl="0" msl="0.000" resource="objects/vaca_1-vaca4.obj" show_level="2 A lot"/>
        </object>
        <object class="WED_ObjPlacement" id="52" parent_id="15">
            <sources/>
            <viewers/>
            <children/>
            <hierarchy hidden="0" locked="0" name="objects/vaca_1-vaca2.obj"/>
            <point heading="288.00" latitude="41.244739452" longitude="1.562008850"/>
            <obj_placement custom_msl="0" msl="0.000" resource="objects/vaca_1-vaca2.obj" show_level="2 A lot"/>
        </object>
        <object class="WED_ObjPlacement" id="53" parent_id="15">
            <sources/>
            <viewers/>
            <children/>
            <hierarchy hidden="0" locked="0" name="objects/vaca_1.obj"/>
            <point heading="288.00" latitude="41.244739452" longitude="1.562008850"/>
            <obj_placement custom_msl="0" msl="0.000" resource="objects/vaca_1.obj" show_level="2 A lot"/>
        </object>
        <object class="WED_ObjPlacement" id="54" parent_id="15">
            <sources/>
            <viewers/>
            <children/>
            <hierarchy hidden="0" locked="0" name="objects/vaca_1-vaca1.obj"/>
            <point heading="288.00" latitude="41.244739452" longitude="1.562008850"/>
            <obj_placement custom_msl="0" msl="0.000" resource="objects/vaca_1-vaca1.obj" show_level="2 A lot"/>
        </object>
        <object class="WED_ObjPlacement" id="55" parent_id="15">
            <sources/>
            <viewers/>
            <children/>
            <hierarchy hidden="0" locked="0" name="objects/vaca_1-vaca3.obj"/>
            <point heading="288.00" latitude="41.244739452" longitude="1.562008850"/>
            <obj_placement custom_msl="0" msl="0.000" resource="objects/vaca_1-vaca3.obj" show_level="2 A lot"/>
        </object>
        <object class="WED_ObjPlacement" id="56" parent_id="15">
            <sources/>
            <viewers/>
            <children/>
            <hierarchy hidden="0" locked="0" name="objects/vaca_1-vaca0.obj"/>
            <point heading="288.00" latitude="41.244739452" longitude="1.562008850"/>
            <obj_placement custom_msl="0" msl="0.000" resource="objects/vaca_1-vaca0.obj" show_level="2 A lot"/>
        </object>
        <object class="WED_ObjPlacement" id="57" parent_id="15">
            <sources/>
            <viewers/>
            <children/>
            <hierarchy hidden="0" locked="0" name="objects/vaca_1-vaca5.obj"/>
            <point heading="288.00" latitude="41.244739452" longitude="1.562008850"/>
            <obj_placement custom_msl="0" msl="0.000" resource="objects/vaca_1-vaca5.obj" show_level="2 A lot"/>
        </object>
        <object class="WED_ObjPlacement" id="58" parent_id="15">
            <sources/>
            <viewers/>
            <children/>
            <hierarchy hidden="0" locked="0" name="objects/vaca_2-vaca_24.obj"/>
            <point heading="318.00" latitude="41.244672694" longitude="1.561856260"/>
            <obj_placement custom_msl="0" msl="0.000" resource="objects/vaca_2-vaca_24.obj" show_level="2 A lot"/>
        </object>
        <object class="WED_ObjPlacement" id="59" parent_id="15">
            <sources/>
            <viewers/>
            <children/>
            <hierarchy hidden="0" locked="0" name="objects/vaca_2-vaca_24.obj"/>
            <point heading="157.99" latitude="41.244846265" longitude="1.562018387"/>
            <obj_placement custom_msl="0" msl="0.000" resource="objects/vaca_2-vaca_24.obj" show_level="2 A lot"/>
        </object>
        <object class="WED_ObjPlacement" id="60" parent_id="15">
            <sources/>
            <viewers/>
            <children/>
            <hierarchy hidden="0" locked="0" name="objects/vaca_2.obj"/>
            <point heading="318.00" latitude="41.244672694" longitude="1.561856260"/>
            <obj_placement custom_msl="0" msl="0.000" resource="objects/vaca_2.obj" show_level="2 A lot"/>
        </object>
        <object class="WED_ObjPlacement" id="61" parent_id="15">
            <sources/>
            <viewers/>
            <children/>
            <hierarchy hidden="0" locked="0" name="objects/vaca_2.obj"/>
            <point heading="157.99" latitude="41.244846265" longitude="1.562018387"/>
            <obj_placement custom_msl="0" msl="0.000" resource="objects/vaca_2.obj" show_level="2 A lot"/>
        </object>
        <object class="WED_ObjPlacement" id="62" parent_id="15">
            <sources/>
            <viewers/>
            <children/>
            <hierarchy hidden="0" locked="0" name="objects/vaca_2-vaca_21.obj"/>
            <point heading="318.00" latitude="41.244672694" longitude="1.561856260"/>
            <obj_placement custom_msl="0" msl="0.000" resource="objects/vaca_2-vaca_21.obj" show_level="2 A lot"/>
        </object>
        <object class="WED_ObjPlacement" id="63" parent_id="15">
            <sources/>
            <viewers/>
            <children/>
            <hierarchy hidden="0" locked="0" name="objects/vaca_2-vaca_21.obj"/>
            <point heading="157.99" latitude="41.244846265" longitude="1.562018387"/>
            <obj_placement custom_msl="0" msl="0.000" resource="objects/vaca_2-vaca_21.obj" show_level="2 A lot"/>
        </object>
        <object class="WED_ObjPlacement" id="64" parent_id="15">
            <sources/>
            <viewers/>
            <children/>
            <hierarchy hidden="0" locked="0" name="objects/vaca_2-vaca_20.obj"/>
            <point heading="318.00" latitude="41.244672694" longitude="1.561856260"/>
            <obj_placement custom_msl="0" msl="0.000" resource="objects/vaca_2-vaca_20.obj" show_level="2 A lot"/>
        </object>
        <object class="WED_ObjPlacement" id="66" parent_id="15">
            <sources/>
            <viewers/>
            <children/>
            <hierarchy hidden="0" locked="0" name="objects/vaca_2-vaca_23.obj"/>
            <point heading="318.00" latitude="41.244672694" longitude="1.561856260"/>
            <obj_placement custom_msl="0" msl="0.000" resource="objects/vaca_2-vaca_23.obj" show_level="2 A lot"/>
        </object>
        <object class="WED_ObjPlacement" id="67" parent_id="15">
            <sources/>
            <viewers/>
            <children/>
            <hierarchy hidden="0" locked="0" name="objects/vaca_2-vaca_23.obj"/>
            <point heading="157.99" latitude="41.244846265" longitude="1.562018387"/>
            <obj_placement custom_msl="0" msl="0.000" resource="objects/vaca_2-vaca_23.obj" show_level="2 A lot"/>
        </object>
        <object class="WED_ObjPlacement" id="68" parent_id="15">
            <sources/>
            <viewers/>
            <children/>
            <hierarchy hidden="0" locked="0" name="objects/vaca_2-vaca_22.obj"/>
            <point heading="318.00" latitude="41.244672694" longitude="1.561856260"/>
            <obj_placement custom_msl="0" msl="0.000" resource="objects/vaca_2-vaca_22.obj" show_level="2 A lot"/>
        </object>
        <object class="WED_ObjPlacement" id="69" parent_id="15">
            <sources/>
            <viewers/>
            <children/>
            <hierarchy hidden="0" locked="0" name="objects/vaca_2-vaca_22.obj"/>
            <point heading="157.99" latitude="41.244846265" longitude="1.562018387"/>
            <obj_placement custom_msl="0" msl="0.000" resource="objects/vaca_2-vaca_22.obj" show_level="2 A lot"/>
        </object>
        <object class="WED_ObjPlacement" id="70" parent_id="15">
            <sources/>
            <viewers/>
            <children/>
            <hierarchy hidden="0" locked="0" name="objects/vaca_2-vaca_26.obj"/>
            <point heading="318.00" latitude="41.244672694" longitude="1.561856260"/>
            <obj_placement custom_msl="0" msl="0.000" resource="objects/vaca_2-vaca_26.obj" show_level="2 A lot"/>
        </object>
        <object class="WED_ObjPlacement" id="71" parent_id="15">
            <sources/>
            <viewers/>
            <children/>
            <hierarchy hidden="0" locked="0" name="objects/vaca_2-vaca_26.obj"/>
            <point heading="157.99" latitude="41.244846265" longitude="1.562018387"/>
            <obj_placement custom_msl="0" msl="0.000" resource="objects/vaca_2-vaca_26.obj" show_level="2 A lot"/>
        </object>
        <object class="WED_ObjPlacement" id="72" parent_id="15">
            <sources/>
            <viewers/>
            <children/>
            <hierarchy hidden="0" locked="0" name="objects/vaca_2-vaca_25.obj"/>
            <point heading="318.00" latitude="41.244672694" longitude="1.561856260"/>
            <obj_placement custom_msl="0" msl="0.000" resource="objects/vaca_2-vaca_25.obj" show_level="2 A lot"/>
        </object>
        <object class="WED_ObjPlacement" id="73" parent_id="15">
            <sources/>
            <viewers/>
            <children/>
            <hierarchy hidden="0" locked="0" name="objects/vaca_2-vaca_25.obj"/>
            <point heading="157.99" latitude="41.244846265" longitude="1.562018387"/>
            <obj_placement custom_msl="0" msl="0.000" resource="objects/vaca_2-vaca_25.obj" show_level="2 A lot"/>
        </object>
        <object class="WED_ObjPlacement" id="74" parent_id="15">
            <sources/>
            <viewers/>
            <children/>
            <hierarchy hidden="0" locked="0" name="objects/vaca_negra-black_hair.obj"/>
            <point heading="87.99" latitude="41.244647898" longitude="1.561854353"/>
            <obj_placement custom_msl="0" msl="0.000" resource="objects/vaca_negra-black_hair.obj" show_level="2 A lot"/>
        </object>
        <object class="WED_ObjPlacement" id="75" parent_id="15">
            <sources/>
            <viewers/>
            <children/>
            <hierarchy hidden="0" locked="0" name="objects/vaca_negra-grey_hair1.obj"/>
            <point heading="87.99" latitude="41.244647898" longitude="1.561854353"/>
            <obj_placement custom_msl="0" msl="0.000" resource="objects/vaca_negra-grey_hair1.obj" show_level="2 A lot"/>
        </object>
        <object class="WED_ObjPlacement" id="76" parent_id="15">
            <sources/>
            <viewers/>
            <children/>
            <hierarchy hidden="0" locked="0" name="objects/vaca_negra.obj"/>
            <point heading="87.99" latitude="41.244647898" longitude="1.561854353"/>
            <obj_placement custom_msl="0" msl="0.000" resource="objects/vaca_negra.obj" show_level="2 A lot"/>
        </object>
        <object class="WED_ObjPlacement" id="77" parent_id="15">
            <sources/>
            <viewers/>
            <children/>
            <hierarchy hidden="0" locked="0" name="objects/vaca_negra-grey_hair1_0.obj"/>
            <point heading="87.99" latitude="41.244647898" longitude="1.561854353"/>
            <obj_placement custom_msl="0" msl="0.000" resource="objects/vaca_negra-grey_hair1_0.obj" show_level="2 A lot"/>
        </object>
        <object class="WED_ObjPlacement" id="78" parent_id="15">
            <sources/>
            <viewers/>
            <children/>
            <hierarchy hidden="0" locked="0" name="objects/vaca_negra-grey_hair.obj"/>
            <point heading="87.99" latitude="41.244647898" longitude="1.561854353"/>
            <obj_placement custom_msl="0" msl="0.000" resource="objects/vaca_negra-grey_hair.obj" show_level="2 A lot"/>
        </object>
        <object class="WED_ObjPlacement" id="79" parent_id="15">
            <sources/>
            <viewers/>
            <children/>
            <hierarchy hidden="0" locked="0" name="objects/toro-toro0.obj"/>
            <point heading="298.00" latitude="41.244779507" longitude="1.561877241"/>
            <obj_placement custom_msl="0" msl="0.000" resource="objects/toro-toro0.obj" show_level="2 A lot"/>
        </object>
        <object class="WED_ObjPlacement" id="80" parent_id="15">
            <sources/>
            <viewers/>
            <children/>
            <hierarchy hidden="0" locked="0" name="objects/toro.obj"/>
            <point heading="298.00" latitude="41.244779507" longitude="1.561877241"/>
            <obj_placement custom_msl="0" msl="0.000" resource="objects/toro.obj" show_level="2 A lot"/>
        </object>
        <object class="WED_ObjPlacement" id="81" parent_id="15">
            <sources/>
            <viewers/>
            <children/>
            <hierarchy hidden="0" locked="0" name="objects/toro-toro6.obj"/>
            <point heading="298.00" latitude="41.244779507" longitude="1.561877241"/>
            <obj_placement custom_msl="0" msl="0.000" resource="objects/toro-toro6.obj" show_level="2 A lot"/>
        </object>
        <object class="WED_ObjPlacement" id="82" parent_id="15">
            <sources/>
            <viewers/>
            <children/>
            <hierarchy hidden="0" locked="0" name="objects/toro-toro4.obj"/>
            <point heading="298.00" latitude="41.244779507" longitude="1.561877241"/>
            <obj_placement custom_msl="0" msl="0.000" resource="objects/toro-toro4.obj" show_level="2 A lot"/>
        </object>
        <object class="WED_ObjPlacement" id="83" parent_id="15">
            <sources/>
            <viewers/>
            <children/>
            <hierarchy hidden="0" locked="0" name="objects/toro-toro7.obj"/>
            <point heading="298.00" latitude="41.244779507" longitude="1.561877241"/>
            <obj_placement custom_msl="0" msl="0.000" resource="objects/toro-toro7.obj" show_level="2 A lot"/>
        </object>
        <object class="WED_ObjPlacement" id="84" parent_id="15">
            <sources/>
            <viewers/>
            <children/>
            <hierarchy hidden="0" locked="0" name="objects/toro-toro8.obj"/>
            <point heading="298.00" latitude="41.244779507" longitude="1.561877241"/>
            <obj_placement custom_msl="0" msl="0.000" resource="objects/toro-toro8.obj" show_level="2 A lot"/>
        </object>
        <object class="WED_ObjPlacement" id="85" parent_id="15">
            <sources/>
            <viewers/>
            <children/>
            <hierarchy hidden="0" locked="0" name="objects/toro-toro2.obj"/>
            <point heading="298.00" latitude="41.244779507" longitude="1.561877241"/>
            <obj_placement custom_msl="0" msl="0.000" resource="objects/toro-toro2.obj" show_level="2 A lot"/>
        </object>
        <object class="WED_ObjPlacement" id="86" parent_id="15">
            <sources/>
            <viewers/>
            <children/>
            <hierarchy hidden="0" locked="0" name="objects/toro-toro3.obj"/>
            <point heading="298.00" latitude="41.244779507" longitude="1.561877241"/>
            <obj_placement custom_msl="0" msl="0.000" resource="objects/toro-toro3.obj" show_level="2 A lot"/>
        </object>
        <object class="WED_ObjPlacement" id="87" parent_id="15">
            <sources/>
            <viewers/>
            <children/>
            <hierarchy hidden="0" locked="0" name="objects/toro-toro1.obj"/>
            <point heading="298.00" latitude="41.244779507" longitude="1.561877241"/>
            <obj_placement custom_msl="0" msl="0.000" resource="objects/toro-toro1.obj" show_level="2 A lot"/>
        </object>
        <object class="WED_ObjPlacement" id="88" parent_id="15">
            <sources/>
            <viewers/>
            <children/>
            <hierarchy hidden="0" locked="0" name="objects/toro-toro5.obj"/>
            <point heading="298.00" latitude="41.244779507" longitude="1.561877241"/>
            <obj_placement custom_msl="0" msl="0.000" resource="objects/toro-toro5.obj" show_level="2 A lot"/>
        </object>
        <object class="WED_ObjPlacement" id="89" parent_id="15">
            <sources/>
            <viewers/>
            <children/>
            <hierarchy hidden="0" locked="0" name="objects/toro-toro9.obj"/>
            <point heading="298.00" latitude="41.244779507" longitude="1.561877241"/>
            <obj_placement custom_msl="0" msl="0.000" resource="objects/toro-toro9.obj" show_level="2 A lot"/>
        </object>
        <object class="WED_PolygonPlacement" id="90" parent_id="15">
            <sources/>
            <viewers/>
            <children>
                <child id="91"/>
            </children>
            <hierarchy hidden="0" locked="0" name="objects/el_vendrell_LE02_pista.pol"/>
            <polygon_placement heading="0.0" resource="objects/el_vendrell_LE02_pista.pol"/>
        </object>
        <object class="WED_Ring" id="91" parent_id="90">
            <sources/>
            <viewers/>
            <children>
                <child id="92"/>
                <child id="93"/>
                <child id="94"/>
                <child id="95"/>
                <child id="96"/>
                <child id="97"/>
                <child id="98"/>
                <child id="99"/>
                <child id="100"/>
                <child id="101"/>
                <child id="102"/>
                <child id="103"/>
                <child id="104"/>
                <child id="105"/>
                <child id="106"/>
                <child id="107"/>
                <child id="108"/>
                <child id="109"/>
                <child id="110"/>
                <child id="111"/>
                <child id="112"/>
                <child id="113"/>
                <child id="114"/>
                <child id="115"/>
                <child id="116"/>
                <child id="117"/>
                <child id="118"/>
                <child id="119"/>
                <child id="120"/>
                <child id="121"/>
                <child id="122"/>
                <child id="123"/>
                <child id="124"/>
                <child id="125"/>
                <child id="126"/>
                <child id="127"/>
                <child id="128"/>
                <child id="129"/>
                <child id="130"/>
                <child id="131"/>
                <child id="132"/>
                <child id="133"/>
                <child id="134"/>
                <child id="135"/>
                <child id="136"/>
                <child id="137"/>
                <child id="138"/>
                <child id="139"/>
                <child id="140"/>
                <child id="141"/>
                <child id="142"/>
                <child id="143"/>
                <child id="144"/>
                <child id="145"/>
                <child id="146"/>
                <child id="147"/>
                <child id="148"/>
                <child id="149"/>
                <child id="150"/>
                <child id="151"/>
                <child id="152"/>
                <child id="153"/>
                <child id="154"/>
                <child id="155"/>
            </children>
            <hierarchy hidden="0" locked="0" name="Ring"/>
        </object>
        <object class="WED_SimpleBoundaryNode" id="92" parent_id="91">
            <sources/>
            <viewers/>
            <children/>
            <hierarchy hidden="0" locked="0" name="Point"/>
            <point latitude="41.243600748" longitude="1.561703670"/>
        </object>
        <object class="WED_SimpleBoundaryNode" id="93" parent_id="91">
            <sources/>
            <viewers/>
            <children/>
            <hierarchy hidden="0" locked="0" name="Point"/>
            <point latitude="41.243596933" longitude="1.561703670"/>
        </object>
        <object class="WED_SimpleBoundaryNode" id="94" parent_id="91">
            <sources/>
            <viewers/>
            <children/>
            <hierarchy hidden="0" locked="0" name="Point"/>
            <point latitude="41.243593118" longitude="1.561703670"/>
        </object>
        <object class="WED_SimpleBoundaryNode" id="95" parent_id="91">
            <sources/>
            <viewers/>
            <children/>
            <hierarchy hidden="0" locked="0" name="Point"/>
            <point latitude="41.243589303" longitude="1.561705577"/>
        </object>
        <object class="WED_SimpleBoundaryNode" id="96" parent_id="91">
            <sources/>
            <viewers/>
            <children/>
            <hierarchy hidden="0" locked="0" name="Point"/>
            <point latitude="41.243587396" longitude="1.561707485"/>
        </object>
        <object class="WED_SimpleBoundaryNode" id="97" parent_id="91">
            <sources/>
            <viewers/>
            <children/>
            <hierarchy hidden="0" locked="0" name="Point"/>
            <point latitude="41.243583581" longitude="1.561709392"/>
        </object>
        <object class="WED_SimpleBoundaryNode" id="98" parent_id="91">
            <sources/>
            <viewers/>
            <children/>
            <hierarchy hidden="0" locked="0" name="Point"/>
            <point latitude="41.243579767" longitude="1.561711299"/>
        </object>
        <object class="WED_SimpleBoundaryNode" id="99" parent_id="91">
            <sources/>
            <viewers/>
            <children/>
            <hierarchy hidden="0" locked="0" name="Point"/>
            <point latitude="41.243577859" longitude="1.561713207"/>
        </object>
        <object class="WED_SimpleBoundaryNode" id="100" parent_id="91">
            <sources/>
            <viewers/>
            <children/>
            <hierarchy hidden="0" locked="0" name="Point"/>
            <point latitude="41.243574044" longitude="1.561717021"/>
        </object>
        <object class="WED_SimpleBoundaryNode" id="101" parent_id="91">
            <sources/>
            <viewers/>
            <children/>
            <hierarchy hidden="0" locked="0" name="Point"/>
            <point latitude="41.243572137" longitude="1.561720836"/>
        </object>
        <object class="WED_SimpleBoundaryNode" id="102" parent_id="91">
            <sources/>
            <viewers/>
            <children/>
            <hierarchy hidden="0" locked="0" name="Point"/>
            <point latitude="41.243568322" longitude="1.561724651"/>
        </object>
        <object class="WED_SimpleBoundaryNode" id="103" parent_id="91">
            <sources/>
            <viewers/>
            <children/>
            <hierarchy hidden="0" locked="0" name="Point"/>
            <point latitude="41.243446250" longitude="1.561921111"/>
        </object>
        <object class="WED_SimpleBoundaryNode" id="104" parent_id="91">
            <sources/>
            <viewers/>
            <children/>
            <hierarchy hidden="0" locked="0" name="Point"/>
            <point latitude="41.243446250" longitude="1.561923018"/>
        </object>
        <object class="WED_SimpleBoundaryNode" id="105" parent_id="91">
            <sources/>
            <viewers/>
            <children/>
            <hierarchy hidden="0" locked="0" name="Point"/>
            <point latitude="41.243444343" longitude="1.561926833"/>
        </object>
        <object class="WED_SimpleBoundaryNode" id="106" parent_id="91">
            <sources/>
            <viewers/>
            <children/>
            <hierarchy hidden="0" locked="0" name="Point"/>
            <point latitude="41.243442435" longitude="1.561930648"/>
        </object>
        <object class="WED_SimpleBoundaryNode" id="107" parent_id="91">
            <sources/>
            <viewers/>
            <children/>
            <hierarchy hidden="0" locked="0" name="Point"/>
            <point latitude="41.243440528" longitude="1.561932555"/>
        </object>
        <object class="WED_SimpleBoundaryNode" id="108" parent_id="91">
            <sources/>
            <viewers/>
            <children/>
            <hierarchy hidden="0" locked="0" name="Point"/>
            <point latitude="41.243438621" longitude="1.561936370"/>
        </object>
        <object class="WED_SimpleBoundaryNode" id="109" parent_id="91">
            <sources/>
            <viewers/>
            <children/>
            <hierarchy hidden="0" locked="0" name="Point"/>
            <point latitude="41.243438621" longitude="1.561940185"/>
        </object>
        <object class="WED_SimpleBoundaryNode" id="110" parent_id="91">
            <sources/>
            <viewers/>
            <children/>
            <hierarchy hidden="0" locked="0" name="Point"/>
            <point latitude="41.243436713" longitude="1.561943999"/>
        </object>
        <object class="WED_SimpleBoundaryNode" id="111" parent_id="91">
            <sources/>
            <viewers/>
            <children/>
            <hierarchy hidden="0" locked="0" name="Point"/>
            <point latitude="41.243434806" longitude="1.561945907"/>
        </object>
        <object class="WED_SimpleBoundaryNode" id="112" parent_id="91">
            <sources/>
            <viewers/>
            <children/>
            <hierarchy hidden="0" locked="0" name="Point"/>
            <point latitude="41.243434806" longitude="1.561949722"/>
        </object>
        <object class="WED_SimpleBoundaryNode" id="113" parent_id="91">
            <sources/>
            <viewers/>
            <children/>
            <hierarchy hidden="0" locked="0" name="Point"/>
            <point latitude="41.243432898" longitude="1.561953536"/>
        </object>
        <object class="WED_SimpleBoundaryNode" id="114" parent_id="91">
            <sources/>
            <viewers/>
            <children/>
            <hierarchy hidden="0" locked="0" name="Point"/>
            <point latitude="41.243432898" longitude="1.561957351"/>
        </object>
        <object class="WED_SimpleBoundaryNode" id="115" parent_id="91">
            <sources/>
            <viewers/>
            <children/>
            <hierarchy hidden="0" locked="0" name="Point"/>
            <point latitude="41.243430991" longitude="1.561961166"/>
        </object>
        <object class="WED_SimpleBoundaryNode" id="116" parent_id="91">
            <sources/>
            <viewers/>
            <children/>
            <hierarchy hidden="0" locked="0" name="Point"/>
            <point latitude="41.243429084" longitude="1.561964981"/>
        </object>
        <object class="WED_SimpleBoundaryNode" id="117" parent_id="91">
            <sources/>
            <viewers/>
            <children/>
            <hierarchy hidden="0" locked="0" name="Point"/>
            <point latitude="41.243429084" longitude="1.561968795"/>
        </object>
        <object class="WED_SimpleBoundaryNode" id="118" parent_id="91">
            <sources/>
            <viewers/>
            <children/>
            <hierarchy hidden="0" locked="0" name="Point"/>
            <point latitude="41.243427176" longitude="1.561972610"/>
        </object>
        <object class="WED_SimpleBoundaryNode" id="119" parent_id="91">
            <sources/>
            <viewers/>
            <children/>
            <hierarchy hidden="0" locked="0" name="Point"/>
            <point latitude="41.243427176" longitude="1.561976425"/>
        </object>
        <object class="WED_SimpleBoundaryNode" id="120" parent_id="91">
            <sources/>
            <viewers/>
            <children/>
            <hierarchy hidden="0" locked="0" name="Point"/>
            <point latitude="41.243427176" longitude="1.561980240"/>
        </object>
        <object class="WED_SimpleBoundaryNode" id="121" parent_id="91">
            <sources/>
            <viewers/>
            <children/>
            <hierarchy hidden="0" locked="0" name="Point"/>
            <point latitude="41.243427176" longitude="1.561984054"/>
        </object>
        <object class="WED_SimpleBoundaryNode" id="122" parent_id="91">
            <sources/>
            <viewers/>
            <children/>
            <hierarchy hidden="0" locked="0" name="Point"/>
            <point latitude="41.243429084" longitude="1.561987869"/>
        </object>
        <object class="WED_SimpleBoundaryNode" id="123" parent_id="91">
            <sources/>
            <viewers/>
            <children/>
            <hierarchy hidden="0" locked="0" name="Point"/>
            <point latitude="41.243429084" longitude="1.561991684"/>
        </object>
        <object class="WED_SimpleBoundaryNode" id="124" parent_id="91">
            <sources/>
            <viewers/>
            <children/>
            <hierarchy hidden="0" locked="0" name="Point"/>
            <point latitude="41.243430991" longitude="1.561995499"/>
        </object>
        <object class="WED_SimpleBoundaryNode" id="125" parent_id="91">
            <sources/>
            <viewers/>
            <children/>
            <hierarchy hidden="0" locked="0" name="Point"/>
            <point latitude="41.243432898" longitude="1.561999313"/>
        </object>
        <object class="WED_SimpleBoundaryNode" id="126" parent_id="91">
            <sources/>
            <viewers/>
            <children/>
            <hierarchy hidden="0" locked="0" name="Point"/>
            <point latitude="41.243434806" longitude="1.562001221"/>
        </object>
        <object class="WED_SimpleBoundaryNode" id="127" parent_id="91">
            <sources/>
            <viewers/>
            <children/>
            <hierarchy hidden="0" locked="0" name="Point"/>
            <point latitude="41.243436713" longitude="1.562005035"/>
        </object>
        <object class="WED_SimpleBoundaryNode" id="128" parent_id="91">
            <sources/>
            <viewers/>
            <children/>
            <hierarchy hidden="0" locked="0" name="Point"/>
            <point latitude="41.245948730" longitude="1.564614328"/>
        </object>
        <object class="WED_SimpleBoundaryNode" id="129" parent_id="91">
            <sources/>
            <viewers/>
            <children/>
            <hierarchy hidden="0" locked="0" name="Point"/>
            <point latitude="41.245950637" longitude="1.564616236"/>
        </object>
        <object class="WED_SimpleBoundaryNode" id="130" parent_id="91">
            <sources/>
            <viewers/>
            <children/>
            <hierarchy hidden="0" locked="0" name="Point"/>
            <point latitude="41.245952544" longitude="1.564618143"/>
        </object>
        <object class="WED_SimpleBoundaryNode" id="131" parent_id="91">
            <sources/>
            <viewers/>
            <children/>
            <hierarchy hidden="0" locked="0" name="Point"/>
            <point latitude="41.245954452" longitude="1.564620050"/>
        </object>
        <object class="WED_SimpleBoundaryNode" id="132" parent_id="91">
            <sources/>
            <viewers/>
            <children/>
            <hierarchy hidden="0" locked="0" name="Point"/>
            <point latitude="41.245956359" longitude="1.564620050"/>
        </object>
        <object class="WED_SimpleBoundaryNode" id="133" parent_id="91">
            <sources/>
            <viewers/>
            <children/>
            <hierarchy hidden="0" locked="0" name="Point"/>
            <point latitude="41.245960174" longitude="1.564621958"/>
        </object>
        <object class="WED_SimpleBoundaryNode" id="134" parent_id="91">
            <sources/>
            <viewers/>
            <children/>
            <hierarchy hidden="0" locked="0" name="Point"/>
            <point latitude="41.245962081" longitude="1.564621958"/>
        </object>
        <object class="WED_SimpleBoundaryNode" id="135" parent_id="91">
            <sources/>
            <viewers/>
            <children/>
            <hierarchy hidden="0" locked="0" name="Point"/>
            <point latitude="41.245963989" longitude="1.564621958"/>
        </object>
        <object class="WED_SimpleBoundaryNode" id="136" parent_id="91">
            <sources/>
            <viewers/>
            <children/>
            <hierarchy hidden="0" locked="0" name="Point"/>
            <point latitude="41.245965896" longitude="1.564620050"/>
        </object>
        <object class="WED_SimpleBoundaryNode" id="137" parent_id="91">
            <sources/>
            <viewers/>
            <children/>
            <hierarchy hidden="0" locked="0" name="Point"/>
            <point latitude="41.245967803" longitude="1.564620050"/>
        </object>
        <object class="WED_SimpleBoundaryNode" id="138" parent_id="91">
            <sources/>
            <viewers/>
            <children/>
            <hierarchy hidden="0" locked="0" name="Point"/>
            <point latitude="41.245969711" longitude="1.564618143"/>
        </object>
        <object class="WED_SimpleBoundaryNode" id="139" parent_id="91">
            <sources/>
            <viewers/>
            <children/>
            <hierarchy hidden="0" locked="0" name="Point"/>
            <point latitude="41.245971618" longitude="1.564616236"/>
        </object>
        <object class="WED_SimpleBoundaryNode" id="140" parent_id="91">
            <sources/>
            <viewers/>
            <children/>
            <hierarchy hidden="0" locked="0" name="Point"/>
            <point latitude="41.245973526" longitude="1.564614328"/>
        </object>
        <object class="WED_SimpleBoundaryNode" id="141" parent_id="91">
            <sources/>
            <viewers/>
            <children/>
            <hierarchy hidden="0" locked="0" name="Point"/>
            <point latitude="41.246128023" longitude="1.564349203"/>
        </object>
        <object class="WED_SimpleBoundaryNode" id="142" parent_id="91">
            <sources/>
            <viewers/>
            <children/>
            <hierarchy hidden="0" locked="0" name="Point"/>
            <point latitude="41.246129931" longitude="1.564347295"/>
        </object>
        <object class="WED_SimpleBoundaryNode" id="143" parent_id="91">
            <sources/>
            <viewers/>
            <children/>
            <hierarchy hidden="0" locked="0" name="Point"/>
            <point latitude="41.246131838" longitude="1.564345388"/>
        </object>
        <object class="WED_SimpleBoundaryNode" id="144" parent_id="91">
            <sources/>
            <viewers/>
            <children/>
            <hierarchy hidden="0" locked="0" name="Point"/>
            <point latitude="41.246131838" longitude="1.564343481"/>
        </object>
        <object class="WED_SimpleBoundaryNode" id="145" parent_id="91">
            <sources/>
            <viewers/>
            <children/>
            <hierarchy hidden="0" locked="0" name="Point"/>
            <point latitude="41.246133745" longitude="1.564339666"/>
        </object>
        <object class="WED_SimpleBoundaryNode" id="146" parent_id="91">
            <sources/>
            <viewers/>
            <children/>
            <hierarchy hidden="0" locked="0" name="Point"/>
            <point latitude="41.246133745" longitude="1.564337758"/>
        </object>
        <object class="WED_SimpleBoundaryNode" id="147" parent_id="91">
            <sources/>
            <viewers/>
            <children/>
            <hierarchy hidden="0" locked="0" name="Point"/>
            <point latitude="41.246133745" longitude="1.564335851"/>
        </object>
        <object class="WED_SimpleBoundaryNode" id="148" parent_id="91">
            <sources/>
            <viewers/>
            <children/>
            <hierarchy hidden="0" locked="0" name="Point"/>
            <point latitude="41.246133745" longitude="1.564332036"/>
        </object>
        <object class="WED_SimpleBoundaryNode" id="149" parent_id="91">
            <sources/>
            <viewers/>
            <children/>
            <hierarchy hidden="0" locked="0" name="Point"/>
            <point latitude="41.246133745" longitude="1.564330129"/>
        </object>
        <object class="WED_SimpleBoundaryNode" id="150" parent_id="91">
            <sources/>
            <viewers/>
            <children/>
            <hierarchy hidden="0" locked="0" name="Point"/>
            <point latitude="41.246131838" longitude="1.564328222"/>
        </object>
        <object class="WED_SimpleBoundaryNode" id="151" parent_id="91">
            <sources/>
            <viewers/>
            <children/>
            <hierarchy hidden="0" locked="0" name="Point"/>
            <point latitude="41.246131838" longitude="1.564324407"/>
        </object>
        <object class="WED_SimpleBoundaryNode" id="152" parent_id="91">
            <sources/>
            <viewers/>
            <children/>
            <hierarchy hidden="0" locked="0" name="Point"/>
            <point latitude="41.246129931" longitude="1.564322499"/>
        </object>
        <object class="WED_SimpleBoundaryNode" id="153" parent_id="91">
            <sources/>
            <viewers/>
            <children/>
            <hierarchy hidden="0" locked="0" name="Point"/>
            <point latitude="41.246129931" longitude="1.564320592"/>
        </object>
        <object class="WED_SimpleBoundaryNode" id="154" parent_id="91">
            <sources/>
            <viewers/>
            <children/>
            <hierarchy hidden="0" locked="0" name="Point"/>
            <point latitude="41.243827726" longitude="1.561932555"/>
        </object>
        <object class="WED_SimpleBoundaryNode" id="155" parent_id="91">
            <sources/>
            <viewers/>
            <children/>
            <hierarchy hidden="0" locked="0" name="Point"/>
            <point latitude="41.243604562" longitude="1.561703670"/>
        </object>
    </objects>
    <prefs>
        <pref name="PropertyPane0/Closed"/>
        <pref name="doc/export_target" value="2"/>
        <pref name="doc/use_feet" value="1"/>
        <pref name="map/east" value="1.565697"/>
        <pref name="map/north" value="41.247230"/>
        <pref name="map/obj_density" value="6"/>
        <pref name="map/pavement_alpha" value="4"/>
        <pref name="map/preview_vis" value="1"/>
        <pref name="map/real_lines_vis" value="1"/>
        <pref name="map/south" value="41.242397"/>
        <pref name="map/vertices_vis" value="1"/>
        <pref name="map/west" value="1.560788"/>
        <pref name="map/world_map_vis" value="1"/>
        <pref name="map_Airport Beacon_Kind" value="69"/>
        <pref name="map_Boundary_.Markings" value=""/>
        <pref name="map_Boundary_Lights" value=""/>
        <pref name="map_Boundary_Markings" value=""/>
        <pref name="map_Exclusions_Exclusions" value="113"/>
        <pref name="map_Facades_Height" value="10.000000"/>
        <pref name="map_Facades_Resource" value="ruscenery/lines/woodfence1.fac"/>
        <pref name="map_Forests_Density" value="1.000000"/>
        <pref name="map_Forests_Resource" value="Vegetacion/hierba2.for"/>
        <pref name="map_Helipad_Edge Lights" value="15"/>
        <pref name="map_Helipad_Markings" value="67"/>
        <pref name="map_Helipad_Roughness" value="0.000000"/>
        <pref name="map_Helipad_Shoulder" value="56"/>
        <pref name="map_Helipad_Surface" value="26"/>
        <pref name="map_Hole_.Markings" value="96"/>
        <pref name="map_Hole_Lights" value="96"/>
        <pref name="map_Hole_Markings" value=""/>
        <pref name="map_Light Fixture_Approach Angle" value="3.000000"/>
        <pref name="map_Light Fixture_Fixture Type" value="40"/>
        <pref name="map_Lines_Resource" value="lib/airport/lines/4_double_hold.lin"/>
        <pref name="map_Objects_Object" value="opensceneryx/objects/furniture/lights/flood/3.obj"/>
        <pref name="map_Objects_Show with" value="532"/>
        <pref name="map_Polygons_Heading" value="0.000000"/>
        <pref name="map_Polygons_Resource" value="lib/airport/pavement/asphalt_6D.pol"/>
        <pref name="map_Polygons_Use Texture Map" value="0"/>
        <pref name="map_Ramp Start_Equipment Type" value=""/>
        <pref name="map_Ramp Start_Ramp Start Type" value="136"/>
        <pref name="map_Runway_Appch" value="42"/>
        <pref name="map_Runway_Center" value="1"/>
        <pref name="map_Runway_Dist" value="1"/>
        <pref name="map_Runway_Edge" value="5"/>
        <pref name="map_Runway_Marks" value="61"/>
        <pref name="map_Runway_REIL" value="10"/>
        <pref name="map_Runway_Rough" value="0.000000"/>
        <pref name="map_Runway_Shoulder" value="56"/>
        <pref name="map_Runway_Surface" value="26"/>
        <pref name="map_Runway_TDZL" value="0"/>
        <pref name="map_Sealane_Buoys" value="1"/>
        <pref name="map_Sign_Size" value="18"/>
        <pref name="map_Sign_Style" value="23"/>
        <pref name="map_Sign_Text" value="{@L}H_A{@Y}{^u}H|T{^r}"/>
        <pref name="map_Sign_Use Clipboard" value="0"/>
        <pref name="map_Strings_Resource" value="lib/airport/lights/slow/101_centerline_twy_GG.str"/>
        <pref name="map_Strings_Spacing" value="5.000000"/>
        <pref name="map_Taxi Routes_Arrival" value=""/>
        <pref name="map_Taxi Routes_Departure" value=""/>
        <pref name="map_Taxi Routes_ILS" value=""/>
        <pref name="map_Taxi Routes_Name" value="N"/>
        <pref name="map_Taxi Routes_Oneway" value="1"/>
        <pref name="map_Taxi Routes_Runway" value="287"/>
        <pref name="map_Taxi Routes_Slop" value="10"/>
        <pref name="map_Taxilines_.Markings" value="77"/>
        <pref name="map_Taxilines_Lights" value=""/>
        <pref name="map_Taxilines_Markings" value="77"/>
        <pref name="map_Taxiway_.Markings" value=""/>
        <pref name="map_Taxiway_Heading" value="117.000000"/>
        <pref name="map_Taxiway_Lights" value=""/>
        <pref name="map_Taxiway_Markings" value=""/>
        <pref name="map_Taxiway_Pavement" value="27"/>
        <pref name="map_Taxiway_Roughness" value="0.000000"/>
        <pref name="map_Tower Viewpoint_Tower Height" value="25.000000"/>
        <pref name="map_Vertex_Snap To Vertices" value="1"/>
        <pref name="map_Windsock_Lit" value="0"/>
        <pref name="window/height" value="998"/>
        <pref name="window/main_split" value="420"/>
        <pref name="window/main_split2" value="1252"/>
        <pref name="window/prev_split" value="417"/>
        <pref name="window/prop_split" value="539"/>
        <pref name="window/width" value="1916"/>
        <pref name="window/x_loc" value="-8"/>
        <pref name="window/y_loc" value="-8"/>
    </prefs>
</doc>
