<?xml version="1.0" encoding="UTF-8"?>
<doc>
    <objects>
        <object class="WED_Root" id="1" parent_id="0">
            <sources/>
            <viewers/>
            <children>
                <child id="2"/>
                <child id="3"/>
                <child id="4"/>
            </children>
            <hierarchy name="root"/>
        </object>
        <object class="WED_AirportNode" id="65" parent_id="51">
            <sources/>
            <viewers/>
            <children/>
            <hierarchy hidden="0" locked="0" name="unnamed entity"/>
            <point ctrl_latitude_hi="0.000000000" ctrl_latitude_lo="0.000000000" ctrl_longitude_hi="0.000000000" ctrl_longitude_lo="0.000000000" latitude="41.043708000" longitude="-2.627523000" split="0"/>
            <markings/>
        </object>
        <object class="WED_ObjPlacement" id="9" parent_id="5">
            <sources/>
            <viewers/>
            <children/>
            <hierarchy hidden="0" locked="0" name="objects/Pa28_180-PA28_180_T.obj"/>
            <point heading="80.00" latitude="41.044556344" longitude="-2.627830549"/>
            <obj_placement custom_msl="0" msl="0.000" resource="objects/Pa28_180-PA28_180_T.obj" show_level="2 A lot"/>
        </object>
        <object class="WED_Select" id="2" parent_id="1">
            <sources/>
            <viewers/>
            <children/>
            <hierarchy name="selection"/>
            <selection>
                <sel id="530"/>
            </selection>
        </object>
        <object class="WED_KeyObjects" id="3" parent_id="1">
            <sources/>
            <viewers/>
            <children/>
            <hierarchy name="choices"/>
            <keys>
                <key id="48" name="airport"/>
            </keys>
        </object>
        <object class="WED_Group" id="4" parent_id="1">
            <sources/>
            <viewers/>
            <children>
                <child id="5"/>
                <child id="48"/>
            </children>
            <hierarchy hidden="0" locked="0" name="world"/>
        </object>
        <object class="WED_Group" id="5" parent_id="4">
            <sources/>
            <viewers/>
            <children>
                <child id="6"/>
                <child id="7"/>
                <child id="8"/>
                <child id="9"/>
                <child id="10"/>
                <child id="11"/>
                <child id="12"/>
                <child id="13"/>
                <child id="14"/>
                <child id="15"/>
                <child id="16"/>
                <child id="17"/>
                <child id="18"/>
                <child id="19"/>
                <child id="20"/>
                <child id="21"/>
                <child id="22"/>
                <child id="23"/>
                <child id="24"/>
                <child id="25"/>
                <child id="26"/>
                <child id="27"/>
                <child id="28"/>
                <child id="29"/>
                <child id="30"/>
                <child id="31"/>
                <child id="32"/>
                <child id="33"/>
                <child id="34"/>
                <child id="35"/>
                <child id="36"/>
                <child id="37"/>
                <child id="38"/>
                <child id="39"/>
                <child id="40"/>
                <child id="41"/>
                <child id="42"/>
                <child id="43"/>
                <child id="44"/>
                <child id="45"/>
            </children>
            <hierarchy hidden="0" locked="0" name="C:\X-Plane 10 Tests\Custom Scenery\LE21_SIGUENZA\Earth nav data\+40-010\+41-003.dsf"/>
        </object>
        <object class="WED_ObjPlacement" id="6" parent_id="5">
            <sources/>
            <viewers/>
            <children/>
            <hierarchy hidden="0" locked="0" name="objects/cessna182s.obj"/>
            <point heading="87.99" latitude="41.044823377" longitude="-2.627885863"/>
            <obj_placement custom_msl="0" msl="0.000" resource="objects/cessna182s.obj" show_level="2 A lot"/>
        </object>
        <object class="WED_ObjPlacement" id="7" parent_id="5">
            <sources/>
            <viewers/>
            <children/>
            <hierarchy hidden="0" locked="0" name="objects/cessna182s-C182_T.obj"/>
            <point heading="87.99" latitude="41.044823377" longitude="-2.627885863"/>
            <obj_placement custom_msl="0" msl="0.000" resource="objects/cessna182s-C182_T.obj" show_level="2 A lot"/>
        </object>
        <object class="WED_ObjPlacement" id="8" parent_id="5">
            <sources/>
            <viewers/>
            <children/>
            <hierarchy hidden="0" locked="0" name="objects/Pa28_180.obj"/>
            <point heading="80.00" latitude="41.044556344" longitude="-2.627830549"/>
            <obj_placement custom_msl="0" msl="0.000" resource="objects/Pa28_180.obj" show_level="2 A lot"/>
        </object>
        <object class="WED_ObjPlacement" id="10" parent_id="5">
            <sources/>
            <viewers/>
            <children/>
            <hierarchy hidden="0" locked="0" name="objects/Maverick_Trike.obj"/>
            <point heading="154.00" latitude="41.044432364" longitude="-2.627718013"/>
            <obj_placement custom_msl="0" msl="0.000" resource="objects/Maverick_Trike.obj" show_level="2 A lot"/>
        </object>
        <object class="WED_ObjPlacement" id="11" parent_id="5">
            <sources/>
            <viewers/>
            <children/>
            <hierarchy hidden="0" locked="0" name="objects/Maverick_Trike-black.obj"/>
            <point heading="154.00" latitude="41.044432364" longitude="-2.627718013"/>
            <obj_placement custom_msl="0" msl="0.000" resource="objects/Maverick_Trike-black.obj" show_level="2 A lot"/>
        </object>
        <object class="WED_ObjPlacement" id="12" parent_id="5">
            <sources/>
            <viewers/>
            <children/>
            <hierarchy hidden="0" locked="0" name="objects/Maverick_Trike-SILVER.obj"/>
            <point heading="154.00" latitude="41.044432364" longitude="-2.627718013"/>
            <obj_placement custom_msl="0" msl="0.000" resource="objects/Maverick_Trike-SILVER.obj" show_level="2 A lot"/>
        </object>
        <object class="WED_ObjPlacement" id="13" parent_id="5">
            <sources/>
            <viewers/>
            <children/>
            <hierarchy hidden="0" locked="0" name="objects/Maverick_Trike-Stone.obj"/>
            <point heading="154.00" latitude="41.044432364" longitude="-2.627718013"/>
            <obj_placement custom_msl="0" msl="0.000" resource="objects/Maverick_Trike-Stone.obj" show_level="2 A lot"/>
        </object>
        <object class="WED_ObjPlacement" id="14" parent_id="5">
            <sources/>
            <viewers/>
            <children/>
            <hierarchy hidden="0" locked="0" name="objects/Maverick_Trike-ex.obj"/>
            <point heading="154.00" latitude="41.044432364" longitude="-2.627718013"/>
            <obj_placement custom_msl="0" msl="0.000" resource="objects/Maverick_Trike-ex.obj" show_level="2 A lot"/>
        </object>
        <object class="WED_ObjPlacement" id="15" parent_id="5">
            <sources/>
            <viewers/>
            <children/>
            <hierarchy hidden="0" locked="0" name="objects/Maverick_Trike-WHEEL.obj"/>
            <point heading="154.00" latitude="41.044432364" longitude="-2.627718013"/>
            <obj_placement custom_msl="0" msl="0.000" resource="objects/Maverick_Trike-WHEEL.obj" show_level="2 A lot"/>
        </object>
        <object class="WED_ObjPlacement" id="16" parent_id="5">
            <sources/>
            <viewers/>
            <children/>
            <hierarchy hidden="0" locked="0" name="objects/Maverick_Trike-$pan.obj"/>
            <point heading="154.00" latitude="41.044432364" longitude="-2.627718013"/>
            <obj_placement custom_msl="0" msl="0.000" resource="objects/Maverick_Trike-$pan.obj" show_level="2 A lot"/>
        </object>
        <object class="WED_ObjPlacement" id="17" parent_id="5">
            <sources/>
            <viewers/>
            <children/>
            <hierarchy hidden="0" locked="0" name="objects/Maverick_Trike-CARBY.obj"/>
            <point heading="154.00" latitude="41.044432364" longitude="-2.627718013"/>
            <obj_placement custom_msl="0" msl="0.000" resource="objects/Maverick_Trike-CARBY.obj" show_level="2 A lot"/>
        </object>
        <object class="WED_ObjPlacement" id="18" parent_id="5">
            <sources/>
            <viewers/>
            <children/>
            <hierarchy hidden="0" locked="0" name="objects/Maverick_Trike-white.obj"/>
            <point heading="154.00" latitude="41.044432364" longitude="-2.627718013"/>
            <obj_placement custom_msl="0" msl="0.000" resource="objects/Maverick_Trike-white.obj" show_level="2 A lot"/>
        </object>
        <object class="WED_ObjPlacement" id="19" parent_id="5">
            <sources/>
            <viewers/>
            <children/>
            <hierarchy hidden="0" locked="0" name="objects/Maverick_Trike-fairings.obj"/>
            <point heading="154.00" latitude="41.044432364" longitude="-2.627718013"/>
            <obj_placement custom_msl="0" msl="0.000" resource="objects/Maverick_Trike-fairings.obj" show_level="2 A lot"/>
        </object>
        <object class="WED_ObjPlacement" id="20" parent_id="5">
            <sources/>
            <viewers/>
            <children/>
            <hierarchy hidden="0" locked="0" name="objects/Maverick_Trike-PILOT.obj"/>
            <point heading="154.00" latitude="41.044432364" longitude="-2.627718013"/>
            <obj_placement custom_msl="0" msl="0.000" resource="objects/Maverick_Trike-PILOT.obj" show_level="2 A lot"/>
        </object>
        <object class="WED_ObjPlacement" id="21" parent_id="5">
            <sources/>
            <viewers/>
            <children/>
            <hierarchy hidden="0" locked="0" name="objects/Maverick_Trike-TYRE_TREAD.obj"/>
            <point heading="154.00" latitude="41.044432364" longitude="-2.627718013"/>
            <obj_placement custom_msl="0" msl="0.000" resource="objects/Maverick_Trike-TYRE_TREAD.obj" show_level="2 A lot"/>
        </object>
        <object class="WED_ObjPlacement" id="22" parent_id="5">
            <sources/>
            <viewers/>
            <children/>
            <hierarchy hidden="0" locked="0" name="objects/Maverick_Trike-Wing.obj"/>
            <point heading="154.00" latitude="41.044432364" longitude="-2.627718013"/>
            <obj_placement custom_msl="0" msl="0.000" resource="objects/Maverick_Trike-Wing.obj" show_level="2 A lot"/>
        </object>
        <object class="WED_ObjPlacement" id="23" parent_id="5">
            <sources/>
            <viewers/>
            <children/>
            <hierarchy hidden="0" locked="0" name="objects/beech_baron_58.obj"/>
            <point heading="90.00" latitude="41.044684138" longitude="-2.627845808"/>
            <obj_placement custom_msl="0" msl="0.000" resource="objects/beech_baron_58.obj" show_level="2 A lot"/>
        </object>
        <object class="WED_ObjPlacement" id="24" parent_id="5">
            <sources/>
            <viewers/>
            <children/>
            <hierarchy hidden="0" locked="0" name="objects/beech_baron_58-BEECH_BARON_58_T.obj"/>
            <point heading="90.00" latitude="41.044684138" longitude="-2.627845808"/>
            <obj_placement custom_msl="0" msl="0.000" resource="objects/beech_baron_58-BEECH_BARON_58_T.obj" show_level="2 A lot"/>
        </object>
        <object class="WED_ObjPlacement" id="25" parent_id="5">
            <sources/>
            <viewers/>
            <children/>
            <hierarchy hidden="0" locked="0" name="objects/ezhangers11.obj"/>
            <point heading="63.00" latitude="41.044626917" longitude="-2.627365148"/>
            <obj_placement custom_msl="0" msl="0.000" resource="objects/ezhangers11.obj" show_level="2 A lot"/>
        </object>
        <object class="WED_ObjPlacement" id="26" parent_id="5">
            <sources/>
            <viewers/>
            <children/>
            <hierarchy hidden="0" locked="0" name="objects/ezhangers11.obj"/>
            <point heading="63.00" latitude="41.044651713" longitude="-2.627304112"/>
            <obj_placement custom_msl="0" msl="0.000" resource="objects/ezhangers11.obj" show_level="2 A lot"/>
        </object>
        <object class="WED_ObjPlacement" id="27" parent_id="5">
            <sources/>
            <viewers/>
            <children/>
            <hierarchy hidden="0" locked="0" name="objects/ezhangers11.obj"/>
            <point heading="63.00" latitude="41.044434272" longitude="-2.627166781"/>
            <obj_placement custom_msl="0" msl="0.000" resource="objects/ezhangers11.obj" show_level="2 A lot"/>
        </object>
        <object class="WED_ObjPlacement" id="28" parent_id="5">
            <sources/>
            <viewers/>
            <children/>
            <hierarchy hidden="0" locked="0" name="objects/ezhangers11-FREQUENCY.obj"/>
            <point heading="63.00" latitude="41.044626917" longitude="-2.627365148"/>
            <obj_placement custom_msl="0" msl="0.000" resource="objects/ezhangers11-FREQUENCY.obj" show_level="2 A lot"/>
        </object>
        <object class="WED_ObjPlacement" id="29" parent_id="5">
            <sources/>
            <viewers/>
            <children/>
            <hierarchy hidden="0" locked="0" name="objects/ezhangers11-FREQUENCY.obj"/>
            <point heading="63.00" latitude="41.044651713" longitude="-2.627304112"/>
            <obj_placement custom_msl="0" msl="0.000" resource="objects/ezhangers11-FREQUENCY.obj" show_level="2 A lot"/>
        </object>
        <object class="WED_ObjPlacement" id="30" parent_id="5">
            <sources/>
            <viewers/>
            <children/>
            <hierarchy hidden="0" locked="0" name="objects/ezhangers11-FREQUENCY.obj"/>
            <point heading="63.00" latitude="41.044434272" longitude="-2.627166781"/>
            <obj_placement custom_msl="0" msl="0.000" resource="objects/ezhangers11-FREQUENCY.obj" show_level="2 A lot"/>
        </object>
        <object class="WED_ObjPlacement" id="31" parent_id="5">
            <sources/>
            <viewers/>
            <children/>
            <hierarchy hidden="0" locked="0" name="objects/ezhangers11-OASAIR1.obj"/>
            <point heading="63.00" latitude="41.044626917" longitude="-2.627365148"/>
            <obj_placement custom_msl="0" msl="0.000" resource="objects/ezhangers11-OASAIR1.obj" show_level="2 A lot"/>
        </object>
        <object class="WED_ObjPlacement" id="32" parent_id="5">
            <sources/>
            <viewers/>
            <children/>
            <hierarchy hidden="0" locked="0" name="objects/ezhangers11-OASAIR1.obj"/>
            <point heading="63.00" latitude="41.044651713" longitude="-2.627304112"/>
            <obj_placement custom_msl="0" msl="0.000" resource="objects/ezhangers11-OASAIR1.obj" show_level="2 A lot"/>
        </object>
        <object class="WED_ObjPlacement" id="33" parent_id="5">
            <sources/>
            <viewers/>
            <children/>
            <hierarchy hidden="0" locked="0" name="objects/ezhangers11-OASAIR1.obj"/>
            <point heading="63.00" latitude="41.044434272" longitude="-2.627166781"/>
            <obj_placement custom_msl="0" msl="0.000" resource="objects/ezhangers11-OASAIR1.obj" show_level="2 A lot"/>
        </object>
        <object class="WED_ObjPlacement" id="34" parent_id="5">
            <sources/>
            <viewers/>
            <children/>
            <hierarchy hidden="0" locked="0" name="objects/ezhangers11-OASAIR3.obj"/>
            <point heading="63.00" latitude="41.044626917" longitude="-2.627365148"/>
            <obj_placement custom_msl="0" msl="0.000" resource="objects/ezhangers11-OASAIR3.obj" show_level="2 A lot"/>
        </object>
        <object class="WED_ObjPlacement" id="35" parent_id="5">
            <sources/>
            <viewers/>
            <children/>
            <hierarchy hidden="0" locked="0" name="objects/ezhangers11-OASAIR3.obj"/>
            <point heading="63.00" latitude="41.044651713" longitude="-2.627304112"/>
            <obj_placement custom_msl="0" msl="0.000" resource="objects/ezhangers11-OASAIR3.obj" show_level="2 A lot"/>
        </object>
        <object class="WED_ObjPlacement" id="36" parent_id="5">
            <sources/>
            <viewers/>
            <children/>
            <hierarchy hidden="0" locked="0" name="objects/ezhangers11-OASAIR3.obj"/>
            <point heading="63.00" latitude="41.044434272" longitude="-2.627166781"/>
            <obj_placement custom_msl="0" msl="0.000" resource="objects/ezhangers11-OASAIR3.obj" show_level="2 A lot"/>
        </object>
        <object class="WED_ObjPlacement" id="37" parent_id="5">
            <sources/>
            <viewers/>
            <children/>
            <hierarchy hidden="0" locked="0" name="objects/ezhangers11-OASAIR2.obj"/>
            <point heading="63.00" latitude="41.044626917" longitude="-2.627365148"/>
            <obj_placement custom_msl="0" msl="0.000" resource="objects/ezhangers11-OASAIR2.obj" show_level="2 A lot"/>
        </object>
        <object class="WED_ObjPlacement" id="38" parent_id="5">
            <sources/>
            <viewers/>
            <children/>
            <hierarchy hidden="0" locked="0" name="objects/ezhangers11-OASAIR2.obj"/>
            <point heading="63.00" latitude="41.044651713" longitude="-2.627304112"/>
            <obj_placement custom_msl="0" msl="0.000" resource="objects/ezhangers11-OASAIR2.obj" show_level="2 A lot"/>
        </object>
        <object class="WED_ObjPlacement" id="39" parent_id="5">
            <sources/>
            <viewers/>
            <children/>
            <hierarchy hidden="0" locked="0" name="objects/ezhangers11-OASAIR2.obj"/>
            <point heading="63.00" latitude="41.044434272" longitude="-2.627166781"/>
            <obj_placement custom_msl="0" msl="0.000" resource="objects/ezhangers11-OASAIR2.obj" show_level="2 A lot"/>
        </object>
        <object class="WED_ObjPlacement" id="40" parent_id="5">
            <sources/>
            <viewers/>
            <children/>
            <hierarchy hidden="0" locked="0" name="objects/ezhangers11-REDHANGERCONCRETE.obj"/>
            <point heading="63.00" latitude="41.044626917" longitude="-2.627365148"/>
            <obj_placement custom_msl="0" msl="0.000" resource="objects/ezhangers11-REDHANGERCONCRETE.obj" show_level="2 A lot"/>
        </object>
        <object class="WED_ObjPlacement" id="41" parent_id="5">
            <sources/>
            <viewers/>
            <children/>
            <hierarchy hidden="0" locked="0" name="objects/ezhangers11-REDHANGERCONCRETE.obj"/>
            <point heading="63.00" latitude="41.044651713" longitude="-2.627304112"/>
            <obj_placement custom_msl="0" msl="0.000" resource="objects/ezhangers11-REDHANGERCONCRETE.obj" show_level="2 A lot"/>
        </object>
        <object class="WED_ObjPlacement" id="42" parent_id="5">
            <sources/>
            <viewers/>
            <children/>
            <hierarchy hidden="0" locked="0" name="objects/ezhangers11-REDHANGERCONCRETE.obj"/>
            <point heading="63.00" latitude="41.044434272" longitude="-2.627166781"/>
            <obj_placement custom_msl="0" msl="0.000" resource="objects/ezhangers11-REDHANGERCONCRETE.obj" show_level="2 A lot"/>
        </object>
        <object class="WED_ObjPlacement" id="43" parent_id="5">
            <sources/>
            <viewers/>
            <children/>
            <hierarchy hidden="0" locked="0" name="lib/cars/car.obj"/>
            <point heading="40.00" latitude="41.044806210" longitude="-2.627552071"/>
            <obj_placement custom_msl="0" msl="0.000" resource="lib/cars/car.obj" show_level="2 A lot"/>
        </object>
        <object class="WED_ObjPlacement" id="44" parent_id="5">
            <sources/>
            <viewers/>
            <children/>
            <hierarchy hidden="0" locked="0" name="lib/cars/car.obj"/>
            <point heading="52.00" latitude="41.044840543" longitude="-2.627573053"/>
            <obj_placement custom_msl="0" msl="0.000" resource="lib/cars/car.obj" show_level="2 A lot"/>
        </object>
        <object class="WED_ObjPlacement" id="45" parent_id="5">
            <sources/>
            <viewers/>
            <children/>
            <hierarchy hidden="0" locked="0" name="lib/cars/car.obj"/>
            <point heading="0.00" latitude="41.044895857" longitude="-2.627618830"/>
            <obj_placement custom_msl="0" msl="0.000" resource="lib/cars/car.obj" show_level="2 A lot"/>
        </object>
        <object class="WED_Airport" id="48" parent_id="4">
            <sources/>
            <viewers/>
            <children>
                <child id="530"/>
                <child id="482"/>
                <child id="49"/>
                <child id="50"/>
                <child id="120"/>
                <child id="178"/>
                <child id="244"/>
                <child id="264"/>
                <child id="276"/>
                <child id="292"/>
                <child id="304"/>
                <child id="321"/>
                <child id="335"/>
                <child id="354"/>
                <child id="377"/>
                <child id="397"/>
                <child id="403"/>
                <child id="409"/>
                <child id="415"/>
                <child id="427"/>
                <child id="435"/>
                <child id="449"/>
                <child id="460"/>
                <child id="463"/>
                <child id="467"/>
                <child id="470"/>
                <child id="473"/>
                <child id="476"/>
                <child id="477"/>
                <child id="478"/>
                <child id="479"/>
                <child id="480"/>
                <child id="481"/>
            </children>
            <hierarchy hidden="0" locked="0" name="Siguenza"/>
            <airport elevation="1123.8" has_atc="0" icao="LE21" kind="Heliport"/>
            <WED_airport scenery_id="-1"/>
        </object>
        <object class="WED_Helipad" id="49" parent_id="48">
            <sources/>
            <viewers/>
            <children/>
            <hierarchy hidden="0" locked="0" name="H1"/>
            <point heading="50.56" latitude="41.042284000" length="20.0" longitude="-2.628910000" width="20.0"/>
            <helipad lights="Yellow" markings="Default" roughness="0.25" shoulder="None" surface="Concrete"/>
        </object>
        <object class="WED_Taxiway" id="50" parent_id="48">
            <sources/>
            <viewers/>
            <children>
                <child id="51"/>
                <child id="105"/>
            </children>
            <hierarchy hidden="0" locked="0" name="Taxiway"/>
            <taxiway heading="166.17" roughness="0.25" surface="Dirt"/>
        </object>
        <object class="WED_AirportChain" id="51" parent_id="50">
            <sources/>
            <viewers/>
            <children>
                <child id="52"/>
                <child id="53"/>
                <child id="54"/>
                <child id="55"/>
                <child id="56"/>
                <child id="57"/>
                <child id="58"/>
                <child id="59"/>
                <child id="60"/>
                <child id="61"/>
                <child id="62"/>
                <child id="63"/>
                <child id="64"/>
                <child id="65"/>
                <child id="66"/>
                <child id="67"/>
                <child id="68"/>
                <child id="69"/>
                <child id="70"/>
                <child id="71"/>
                <child id="72"/>
                <child id="73"/>
                <child id="74"/>
                <child id="75"/>
                <child id="76"/>
                <child id="77"/>
                <child id="78"/>
                <child id="79"/>
                <child id="80"/>
                <child id="81"/>
                <child id="82"/>
                <child id="83"/>
                <child id="84"/>
                <child id="85"/>
                <child id="86"/>
                <child id="87"/>
                <child id="88"/>
                <child id="89"/>
                <child id="90"/>
                <child id="91"/>
                <child id="92"/>
                <child id="93"/>
                <child id="94"/>
                <child id="95"/>
                <child id="96"/>
                <child id="97"/>
                <child id="98"/>
                <child id="99"/>
                <child id="100"/>
                <child id="101"/>
                <child id="102"/>
                <child id="103"/>
                <child id="104"/>
            </children>
            <hierarchy hidden="0" locked="0" name="unnamed entity"/>
            <airport_chain closed="1"/>
        </object>
        <object class="WED_AirportNode" id="52" parent_id="51">
            <sources/>
            <viewers/>
            <children/>
            <hierarchy hidden="0" locked="0" name="unnamed entity"/>
            <point ctrl_latitude_hi="0.000003000" ctrl_latitude_lo="-0.000003000" ctrl_longitude_hi="0.000015000" ctrl_longitude_lo="-0.000015000" latitude="41.046199000" longitude="-2.629145000" split="0"/>
            <markings/>
        </object>
        <object class="WED_AirportNode" id="53" parent_id="51">
            <sources/>
            <viewers/>
            <children/>
            <hierarchy hidden="0" locked="0" name="unnamed entity"/>
            <point ctrl_latitude_hi="0.000029000" ctrl_latitude_lo="-0.000029000" ctrl_longitude_hi="0.000070000" ctrl_longitude_lo="-0.000070000" latitude="41.046247000" longitude="-2.629018000" split="0"/>
            <markings/>
        </object>
        <object class="WED_AirportNode" id="54" parent_id="51">
            <sources/>
            <viewers/>
            <children/>
            <hierarchy hidden="0" locked="0" name="unnamed entity"/>
            <point ctrl_latitude_hi="0.000029000" ctrl_latitude_lo="-0.000029000" ctrl_longitude_hi="0.000070000" ctrl_longitude_lo="-0.000070000" latitude="41.046279000" longitude="-2.628941000" split="0"/>
            <markings/>
        </object>
        <object class="WED_AirportNode" id="55" parent_id="51">
            <sources/>
            <viewers/>
            <children/>
            <hierarchy hidden="0" locked="0" name="unnamed entity"/>
            <point ctrl_latitude_hi="-0.000005000" ctrl_latitude_lo="0.000005000" ctrl_longitude_hi="0.000061000" ctrl_longitude_lo="-0.000061000" latitude="41.046314000" longitude="-2.628745000" split="0"/>
            <markings/>
        </object>
        <object class="WED_AirportNode" id="56" parent_id="51">
            <sources/>
            <viewers/>
            <children/>
            <hierarchy hidden="0" locked="0" name="unnamed entity"/>
            <point ctrl_latitude_hi="-0.000055000" ctrl_latitude_lo="0.000055000" ctrl_longitude_hi="0.000032000" ctrl_longitude_lo="-0.000032000" latitude="41.046224000" longitude="-2.628607000" split="0"/>
            <markings/>
        </object>
        <object class="WED_AirportNode" id="57" parent_id="51">
            <sources/>
            <viewers/>
            <children/>
            <hierarchy hidden="0" locked="0" name="unnamed entity"/>
            <point ctrl_latitude_hi="0.000000000" ctrl_latitude_lo="0.000000000" ctrl_longitude_hi="0.000000000" ctrl_longitude_lo="0.000000000" latitude="41.045186000" longitude="-2.628008000" split="0"/>
            <markings/>
        </object>
        <object class="WED_AirportNode" id="58" parent_id="51">
            <sources/>
            <viewers/>
            <children/>
            <hierarchy hidden="0" locked="0" name="unnamed entity"/>
            <point ctrl_latitude_hi="-0.000055000" ctrl_latitude_lo="0.000055000" ctrl_longitude_hi="0.000032000" ctrl_longitude_lo="-0.000032000" latitude="41.044113000" longitude="-2.627385000" split="0"/>
            <markings/>
        </object>
        <object class="WED_AirportNode" id="59" parent_id="51">
            <sources/>
            <viewers/>
            <children/>
            <hierarchy hidden="0" locked="0" name="unnamed entity"/>
            <point ctrl_latitude_hi="-0.000060000" ctrl_latitude_lo="0.000060000" ctrl_longitude_hi="0.000002000" ctrl_longitude_lo="-0.000002000" latitude="41.043941000" longitude="-2.627334000" split="0"/>
            <markings/>
        </object>
        <object class="WED_AirportNode" id="60" parent_id="51">
            <sources/>
            <viewers/>
            <children/>
            <hierarchy hidden="0" locked="0" name="unnamed entity"/>
            <point ctrl_latitude_hi="-0.000060000" ctrl_latitude_lo="0.000060000" ctrl_longitude_hi="0.000002000" ctrl_longitude_lo="-0.000002000" latitude="41.043923000" longitude="-2.627334000" split="0"/>
            <markings/>
        </object>
        <object class="WED_AirportNode" id="61" parent_id="51">
            <sources/>
            <viewers/>
            <children/>
            <hierarchy hidden="0" locked="0" name="unnamed entity"/>
            <point ctrl_latitude_hi="0.000000000" ctrl_latitude_lo="0.000000000" ctrl_longitude_hi="0.000000000" ctrl_longitude_lo="0.000000000" latitude="41.043833000" longitude="-2.627331000" split="0"/>
            <markings/>
        </object>
        <object class="WED_AirportNode" id="62" parent_id="51">
            <sources/>
            <viewers/>
            <children/>
            <hierarchy hidden="0" locked="0" name="unnamed entity"/>
            <point ctrl_latitude_hi="0.000000000" ctrl_latitude_lo="0.000000000" ctrl_longitude_hi="0.000000000" ctrl_longitude_lo="0.000000000" latitude="41.043830000" longitude="-2.627337000" split="0"/>
            <markings/>
        </object>
        <object class="WED_AirportNode" id="63" parent_id="51">
            <sources/>
            <viewers/>
            <children/>
            <hierarchy hidden="0" locked="0" name="unnamed entity"/>
            <point ctrl_latitude_hi="0.000000000" ctrl_latitude_lo="0.000000000" ctrl_longitude_hi="0.000000000" ctrl_longitude_lo="0.000000000" latitude="41.043826000" longitude="-2.627343000" split="0"/>
            <markings/>
        </object>
        <object class="WED_AirportNode" id="64" parent_id="51">
            <sources/>
            <viewers/>
            <children/>
            <hierarchy hidden="0" locked="0" name="unnamed entity"/>
            <point ctrl_latitude_hi="0.000000000" ctrl_latitude_lo="0.000000000" ctrl_longitude_hi="0.000000000" ctrl_longitude_lo="0.000000000" latitude="41.043767000" longitude="-2.627433000" split="0"/>
            <markings/>
        </object>
        <object class="WED_AirportNode" id="66" parent_id="51">
            <sources/>
            <viewers/>
            <children/>
            <hierarchy hidden="0" locked="0" name="unnamed entity"/>
            <point ctrl_latitude_hi="0.000000000" ctrl_latitude_lo="0.000000000" ctrl_longitude_hi="0.000000000" ctrl_longitude_lo="0.000000000" latitude="41.043630000" longitude="-2.627643000" split="0"/>
            <markings/>
        </object>
        <object class="WED_AirportNode" id="67" parent_id="51">
            <sources/>
            <viewers/>
            <children/>
            <hierarchy hidden="0" locked="0" name="unnamed entity"/>
            <point ctrl_latitude_hi="0.000000000" ctrl_latitude_lo="0.000000000" ctrl_longitude_hi="0.000000000" ctrl_longitude_lo="0.000000000" latitude="41.043571000" longitude="-2.627733000" split="0"/>
            <markings/>
        </object>
        <object class="WED_AirportNode" id="68" parent_id="51">
            <sources/>
            <viewers/>
            <children/>
            <hierarchy hidden="0" locked="0" name="unnamed entity"/>
            <point ctrl_latitude_hi="0.000000000" ctrl_latitude_lo="0.000000000" ctrl_longitude_hi="0.000000000" ctrl_longitude_lo="0.000000000" latitude="41.043511000" longitude="-2.627825000" split="0"/>
            <markings/>
        </object>
        <object class="WED_AirportNode" id="69" parent_id="51">
            <sources/>
            <viewers/>
            <children/>
            <hierarchy hidden="0" locked="0" name="unnamed entity"/>
            <point ctrl_latitude_hi="0.000000000" ctrl_latitude_lo="0.000000000" ctrl_longitude_hi="0.000000000" ctrl_longitude_lo="0.000000000" latitude="41.043452000" longitude="-2.627915000" split="0"/>
            <markings/>
        </object>
        <object class="WED_AirportNode" id="70" parent_id="51">
            <sources/>
            <viewers/>
            <children/>
            <hierarchy hidden="0" locked="0" name="unnamed entity"/>
            <point ctrl_latitude_hi="-0.000039000" ctrl_latitude_lo="0.000039000" ctrl_longitude_hi="-0.000060000" ctrl_longitude_lo="0.000060000" latitude="41.043363000" longitude="-2.628052000" split="0"/>
            <markings/>
        </object>
        <object class="WED_AirportNode" id="71" parent_id="51">
            <sources/>
            <viewers/>
            <children/>
            <hierarchy hidden="0" locked="0" name="unnamed entity"/>
            <point ctrl_latitude_hi="-0.000057000" ctrl_latitude_lo="0.000057000" ctrl_longitude_hi="0.000022000" ctrl_longitude_lo="-0.000022000" latitude="41.043218000" longitude="-2.628109000" split="0"/>
            <markings/>
        </object>
        <object class="WED_AirportNode" id="72" parent_id="51">
            <sources/>
            <viewers/>
            <children/>
            <hierarchy hidden="0" locked="0" name="unnamed entity"/>
            <point ctrl_latitude_hi="-0.000057000" ctrl_latitude_lo="0.000057000" ctrl_longitude_hi="0.000022000" ctrl_longitude_lo="-0.000022000" latitude="41.043097000" longitude="-2.628063000" split="0"/>
            <markings/>
        </object>
        <object class="WED_AirportNode" id="73" parent_id="51">
            <sources/>
            <viewers/>
            <children/>
            <hierarchy hidden="0" locked="0" name="unnamed entity"/>
            <point ctrl_latitude_hi="-0.000011000" ctrl_latitude_lo="0.000011000" ctrl_longitude_hi="-0.000007000" ctrl_longitude_lo="0.000007000" latitude="41.042994000" longitude="-2.628041000" split="0"/>
            <markings/>
        </object>
        <object class="WED_AirportNode" id="74" parent_id="51">
            <sources/>
            <viewers/>
            <children/>
            <hierarchy hidden="0" locked="0" name="unnamed entity"/>
            <point ctrl_latitude_hi="-0.000001000" ctrl_latitude_lo="0.000001000" ctrl_longitude_hi="-0.000026000" ctrl_longitude_lo="0.000026000" latitude="41.042975000" longitude="-2.628090000" split="0"/>
            <markings/>
        </object>
        <object class="WED_AirportNode" id="75" parent_id="51">
            <sources/>
            <viewers/>
            <children/>
            <hierarchy hidden="0" locked="0" name="unnamed entity"/>
            <point ctrl_latitude_hi="0.000000000" ctrl_latitude_lo="-0.000058000" ctrl_longitude_hi="0.000000000" ctrl_longitude_lo="0.000019000" latitude="41.043060000" longitude="-2.628157000" split="1"/>
            <markings/>
        </object>
        <object class="WED_AirportNode" id="76" parent_id="51">
            <sources/>
            <viewers/>
            <children/>
            <hierarchy hidden="0" locked="0" name="unnamed entity"/>
            <point ctrl_latitude_hi="-0.000058000" ctrl_latitude_lo="0.000000000" ctrl_longitude_hi="0.000019000" ctrl_longitude_lo="0.000000000" latitude="41.042964000" longitude="-2.628249000" split="1"/>
            <markings/>
        </object>
        <object class="WED_AirportNode" id="77" parent_id="51">
            <sources/>
            <viewers/>
            <children/>
            <hierarchy hidden="0" locked="0" name="unnamed entity"/>
            <point ctrl_latitude_hi="0.000003000" ctrl_latitude_lo="-0.000003000" ctrl_longitude_hi="0.000067000" ctrl_longitude_lo="-0.000067000" latitude="41.042882000" longitude="-2.628121000" split="0"/>
            <markings/>
        </object>
        <object class="WED_AirportNode" id="78" parent_id="51">
            <sources/>
            <viewers/>
            <children/>
            <hierarchy hidden="0" locked="0" name="unnamed entity"/>
            <point ctrl_latitude_hi="-0.000014000" ctrl_latitude_lo="0.000014000" ctrl_longitude_hi="0.000043000" ctrl_longitude_lo="-0.000043000" latitude="41.042867000" longitude="-2.627957000" split="0"/>
            <markings/>
        </object>
        <object class="WED_AirportNode" id="79" parent_id="51">
            <sources/>
            <viewers/>
            <children/>
            <hierarchy hidden="0" locked="0" name="unnamed entity"/>
            <point ctrl_latitude_hi="0.000044000" ctrl_latitude_lo="-0.000044000" ctrl_longitude_hi="0.000054000" ctrl_longitude_lo="-0.000054000" latitude="41.042912000" longitude="-2.627812000" split="0"/>
            <markings/>
        </object>
        <object class="WED_AirportNode" id="80" parent_id="51">
            <sources/>
            <viewers/>
            <children/>
            <hierarchy hidden="0" locked="0" name="unnamed entity"/>
            <point ctrl_latitude_hi="0.000044000" ctrl_latitude_lo="-0.000044000" ctrl_longitude_hi="0.000054000" ctrl_longitude_lo="-0.000054000" latitude="41.043458000" longitude="-2.627147000" split="0"/>
            <markings/>
        </object>
        <object class="WED_AirportNode" id="81" parent_id="51">
            <sources/>
            <viewers/>
            <children/>
            <hierarchy hidden="0" locked="0" name="unnamed entity"/>
            <point ctrl_latitude_hi="0.000060000" ctrl_latitude_lo="-0.000060000" ctrl_longitude_hi="-0.000000000" ctrl_longitude_lo="0.000000000" latitude="41.043614000" longitude="-2.627066000" split="0"/>
            <markings/>
        </object>
        <object class="WED_AirportNode" id="82" parent_id="51">
            <sources/>
            <viewers/>
            <children/>
            <hierarchy hidden="0" locked="0" name="unnamed entity"/>
            <point ctrl_latitude_hi="0.000060000" ctrl_latitude_lo="-0.000060000" ctrl_longitude_hi="-0.000000000" ctrl_longitude_lo="0.000000000" latitude="41.043673000" longitude="-2.627066000" split="0"/>
            <markings/>
        </object>
        <object class="WED_AirportNode" id="83" parent_id="51">
            <sources/>
            <viewers/>
            <children/>
            <hierarchy hidden="0" locked="0" name="unnamed entity"/>
            <point ctrl_latitude_hi="0.000055000" ctrl_latitude_lo="-0.000055000" ctrl_longitude_hi="-0.000029000" ctrl_longitude_lo="0.000029000" latitude="41.043846000" longitude="-2.627110000" split="0"/>
            <markings/>
        </object>
        <object class="WED_AirportNode" id="84" parent_id="51">
            <sources/>
            <viewers/>
            <children/>
            <hierarchy hidden="0" locked="0" name="unnamed entity"/>
            <point ctrl_latitude_hi="0.000000000" ctrl_latitude_lo="0.000000000" ctrl_longitude_hi="0.000000000" ctrl_longitude_lo="0.000000000" latitude="41.044058000" longitude="-2.627223000" split="0"/>
            <markings/>
        </object>
        <object class="WED_AirportNode" id="85" parent_id="51">
            <sources/>
            <viewers/>
            <children/>
            <hierarchy hidden="0" locked="0" name="unnamed entity"/>
            <point ctrl_latitude_hi="0.000000000" ctrl_latitude_lo="0.000000000" ctrl_longitude_hi="0.000000000" ctrl_longitude_lo="0.000000000" latitude="41.045222000" longitude="-2.627898000" split="0"/>
            <markings/>
        </object>
        <object class="WED_AirportNode" id="86" parent_id="51">
            <sources/>
            <viewers/>
            <children/>
            <hierarchy hidden="0" locked="0" name="unnamed entity"/>
            <point ctrl_latitude_hi="0.000000000" ctrl_latitude_lo="0.000000000" ctrl_longitude_hi="0.000000000" ctrl_longitude_lo="0.000000000" latitude="41.046361000" longitude="-2.628576000" split="0"/>
            <markings/>
        </object>
        <object class="WED_AirportNode" id="87" parent_id="51">
            <sources/>
            <viewers/>
            <children/>
            <hierarchy hidden="0" locked="0" name="unnamed entity"/>
            <point ctrl_latitude_hi="0.000000000" ctrl_latitude_lo="0.000000000" ctrl_longitude_hi="0.000000000" ctrl_longitude_lo="0.000000000" latitude="41.047637000" longitude="-2.629429000" split="0"/>
            <markings/>
        </object>
        <object class="WED_AirportNode" id="88" parent_id="51">
            <sources/>
            <viewers/>
            <children/>
            <hierarchy hidden="0" locked="0" name="unnamed entity"/>
            <point ctrl_latitude_hi="0.000021000" ctrl_latitude_lo="-0.000021000" ctrl_longitude_hi="-0.000015000" ctrl_longitude_lo="0.000015000" latitude="41.047888000" longitude="-2.629617000" split="0"/>
            <markings/>
        </object>
        <object class="WED_AirportNode" id="89" parent_id="51">
            <sources/>
            <viewers/>
            <children/>
            <hierarchy hidden="0" locked="0" name="unnamed entity"/>
            <point ctrl_latitude_hi="0.000001000" ctrl_latitude_lo="-0.000001000" ctrl_longitude_hi="-0.000032000" ctrl_longitude_lo="0.000032000" latitude="41.047921000" longitude="-2.629688000" split="0"/>
            <markings/>
        </object>
        <object class="WED_AirportNode" id="90" parent_id="51">
            <sources/>
            <viewers/>
            <children/>
            <hierarchy hidden="0" locked="0" name="unnamed entity"/>
            <point ctrl_latitude_hi="0.000001000" ctrl_latitude_lo="-0.000001000" ctrl_longitude_hi="-0.000032000" ctrl_longitude_lo="0.000032000" latitude="41.047922000" longitude="-2.629708000" split="0"/>
            <markings/>
        </object>
        <object class="WED_AirportNode" id="91" parent_id="51">
            <sources/>
            <viewers/>
            <children/>
            <hierarchy hidden="0" locked="0" name="unnamed entity"/>
            <point ctrl_latitude_hi="-0.000024000" ctrl_latitude_lo="0.000024000" ctrl_longitude_hi="0.000002000" ctrl_longitude_lo="-0.000002000" latitude="41.047888000" longitude="-2.629753000" split="0"/>
            <markings/>
        </object>
        <object class="WED_AirportNode" id="92" parent_id="51">
            <sources/>
            <viewers/>
            <children/>
            <hierarchy hidden="0" locked="0" name="unnamed entity"/>
            <point ctrl_latitude_hi="0.000000000" ctrl_latitude_lo="0.000000000" ctrl_longitude_hi="0.000000000" ctrl_longitude_lo="0.000000000" latitude="41.047650000" longitude="-2.629736000" split="0"/>
            <markings/>
        </object>
        <object class="WED_AirportNode" id="93" parent_id="51">
            <sources/>
            <viewers/>
            <children/>
            <hierarchy hidden="0" locked="0" name="unnamed entity"/>
            <point ctrl_latitude_hi="0.000000000" ctrl_latitude_lo="0.000000000" ctrl_longitude_hi="0.000000000" ctrl_longitude_lo="0.000000000" latitude="41.047652000" longitude="-2.629689000" split="0"/>
            <markings/>
        </object>
        <object class="WED_AirportNode" id="94" parent_id="51">
            <sources/>
            <viewers/>
            <children/>
            <hierarchy hidden="0" locked="0" name="unnamed entity"/>
            <point ctrl_latitude_hi="0.000024000" ctrl_latitude_lo="-0.000024000" ctrl_longitude_hi="-0.000002000" ctrl_longitude_lo="0.000002000" latitude="41.047850000" longitude="-2.629703000" split="0"/>
            <markings/>
        </object>
        <object class="WED_AirportNode" id="95" parent_id="51">
            <sources/>
            <viewers/>
            <children/>
            <hierarchy hidden="0" locked="0" name="unnamed entity"/>
            <point ctrl_latitude_hi="-0.000000000" ctrl_latitude_lo="0.000000000" ctrl_longitude_hi="0.000013000" ctrl_longitude_lo="-0.000013000" latitude="41.047885000" longitude="-2.629687000" split="0"/>
            <markings/>
        </object>
        <object class="WED_AirportNode" id="96" parent_id="51">
            <sources/>
            <viewers/>
            <children/>
            <hierarchy hidden="0" locked="0" name="unnamed entity"/>
            <point ctrl_latitude_hi="-0.000021000" ctrl_latitude_lo="0.000021000" ctrl_longitude_hi="0.000015000" ctrl_longitude_lo="-0.000015000" latitude="41.047854000" longitude="-2.629645000" split="0"/>
            <markings/>
        </object>
        <object class="WED_AirportNode" id="97" parent_id="51">
            <sources/>
            <viewers/>
            <children/>
            <hierarchy hidden="0" locked="0" name="unnamed entity"/>
            <point ctrl_latitude_hi="0.000000000" ctrl_latitude_lo="0.000000000" ctrl_longitude_hi="0.000000000" ctrl_longitude_lo="0.000000000" latitude="41.047621000" longitude="-2.629471000" split="0"/>
            <markings/>
        </object>
        <object class="WED_AirportNode" id="98" parent_id="51">
            <sources/>
            <viewers/>
            <children/>
            <hierarchy hidden="0" locked="0" name="unnamed entity"/>
            <point ctrl_latitude_hi="-0.000021000" ctrl_latitude_lo="0.000021000" ctrl_longitude_hi="0.000014000" ctrl_longitude_lo="-0.000014000" latitude="41.046430000" longitude="-2.628694000" split="0"/>
            <markings/>
        </object>
        <object class="WED_AirportNode" id="99" parent_id="51">
            <sources/>
            <viewers/>
            <children/>
            <hierarchy hidden="0" locked="0" name="unnamed entity"/>
            <point ctrl_latitude_hi="0.000005000" ctrl_latitude_lo="-0.000005000" ctrl_longitude_hi="-0.000062000" ctrl_longitude_lo="0.000062000" latitude="41.046406000" longitude="-2.628767000" split="0"/>
            <markings/>
        </object>
        <object class="WED_AirportNode" id="100" parent_id="51">
            <sources/>
            <viewers/>
            <children/>
            <hierarchy hidden="0" locked="0" name="unnamed entity"/>
            <point ctrl_latitude_hi="-0.000029000" ctrl_latitude_lo="0.000029000" ctrl_longitude_hi="-0.000070000" ctrl_longitude_lo="0.000070000" latitude="41.046371000" longitude="-2.628965000" split="0"/>
            <markings/>
        </object>
        <object class="WED_AirportNode" id="101" parent_id="51">
            <sources/>
            <viewers/>
            <children/>
            <hierarchy hidden="0" locked="0" name="unnamed entity"/>
            <point ctrl_latitude_hi="-0.000029000" ctrl_latitude_lo="0.000029000" ctrl_longitude_hi="-0.000070000" ctrl_longitude_lo="0.000070000" latitude="41.046331000" longitude="-2.629064000" split="0"/>
            <markings/>
        </object>
        <object class="WED_AirportNode" id="102" parent_id="51">
            <sources/>
            <viewers/>
            <children/>
            <hierarchy hidden="0" locked="0" name="unnamed entity"/>
            <point ctrl_latitude_hi="-0.000011000" ctrl_latitude_lo="0.000011000" ctrl_longitude_hi="-0.000047000" ctrl_longitude_lo="0.000047000" latitude="41.046272000" longitude="-2.629239000" split="0"/>
            <markings/>
        </object>
        <object class="WED_AirportNode" id="103" parent_id="51">
            <sources/>
            <viewers/>
            <children/>
            <hierarchy hidden="0" locked="0" name="unnamed entity"/>
            <point ctrl_latitude_hi="0.000000000" ctrl_latitude_lo="0.000058000" ctrl_longitude_hi="0.000000000" ctrl_longitude_lo="-0.000019000" latitude="41.046169000" longitude="-2.629282000" split="1"/>
            <markings/>
        </object>
        <object class="WED_AirportNode" id="104" parent_id="51">
            <sources/>
            <viewers/>
            <children/>
            <hierarchy hidden="0" locked="0" name="unnamed entity"/>
            <point ctrl_latitude_hi="0.000058000" ctrl_latitude_lo="0.000000000" ctrl_longitude_hi="-0.000019000" ctrl_longitude_lo="0.000000000" latitude="41.046107000" longitude="-2.629140000" split="1"/>
            <markings/>
        </object>
        <object class="WED_AirportChain" id="105" parent_id="50">
            <sources/>
            <viewers/>
            <children>
                <child id="106"/>
                <child id="107"/>
                <child id="108"/>
                <child id="109"/>
                <child id="110"/>
                <child id="111"/>
                <child id="112"/>
                <child id="113"/>
                <child id="114"/>
                <child id="115"/>
                <child id="116"/>
                <child id="117"/>
                <child id="118"/>
                <child id="119"/>
            </children>
            <hierarchy hidden="0" locked="0" name="unnamed entity"/>
            <airport_chain closed="1"/>
        </object>
        <object class="WED_AirportNode" id="106" parent_id="105">
            <sources/>
            <viewers/>
            <children/>
            <hierarchy hidden="0" locked="0" name="unnamed entity"/>
            <point ctrl_latitude_hi="0.000000000" ctrl_latitude_lo="0.000000000" ctrl_longitude_hi="0.000000000" ctrl_longitude_lo="0.000000000" latitude="41.043478000" longitude="-2.627693000" split="0"/>
            <markings/>
        </object>
        <object class="WED_AirportNode" id="107" parent_id="105">
            <sources/>
            <viewers/>
            <children/>
            <hierarchy hidden="0" locked="0" name="unnamed entity"/>
            <point ctrl_latitude_hi="0.000000000" ctrl_latitude_lo="0.000000000" ctrl_longitude_hi="0.000000000" ctrl_longitude_lo="0.000000000" latitude="41.043730000" longitude="-2.627307000" split="0"/>
            <markings/>
        </object>
        <object class="WED_AirportNode" id="108" parent_id="105">
            <sources/>
            <viewers/>
            <children/>
            <hierarchy hidden="0" locked="0" name="unnamed entity"/>
            <point ctrl_latitude_hi="0.000000000" ctrl_latitude_lo="0.000000000" ctrl_longitude_hi="0.000000000" ctrl_longitude_lo="0.000000000" latitude="41.043793000" longitude="-2.627211000" split="0"/>
            <markings/>
        </object>
        <object class="WED_AirportNode" id="109" parent_id="105">
            <sources/>
            <viewers/>
            <children/>
            <hierarchy hidden="0" locked="0" name="unnamed entity"/>
            <point ctrl_latitude_hi="-0.000016000" ctrl_latitude_lo="0.000016000" ctrl_longitude_hi="0.000008000" ctrl_longitude_lo="-0.000008000" latitude="41.043769000" longitude="-2.627198000" split="0"/>
            <markings/>
        </object>
        <object class="WED_AirportNode" id="110" parent_id="105">
            <sources/>
            <viewers/>
            <children/>
            <hierarchy hidden="0" locked="0" name="unnamed entity"/>
            <point ctrl_latitude_hi="-0.000060000" ctrl_latitude_lo="0.000060000" ctrl_longitude_hi="-0.000000000" ctrl_longitude_lo="0.000000000" latitude="41.043655000" longitude="-2.627186000" split="0"/>
            <markings/>
        </object>
        <object class="WED_AirportNode" id="111" parent_id="105">
            <sources/>
            <viewers/>
            <children/>
            <hierarchy hidden="0" locked="0" name="unnamed entity"/>
            <point ctrl_latitude_hi="-0.000060000" ctrl_latitude_lo="0.000060000" ctrl_longitude_hi="-0.000000000" ctrl_longitude_lo="0.000000000" latitude="41.043650000" longitude="-2.627186000" split="0"/>
            <markings/>
        </object>
        <object class="WED_AirportNode" id="112" parent_id="105">
            <sources/>
            <viewers/>
            <children/>
            <hierarchy hidden="0" locked="0" name="unnamed entity"/>
            <point ctrl_latitude_hi="-0.000044000" ctrl_latitude_lo="0.000044000" ctrl_longitude_hi="-0.000054000" ctrl_longitude_lo="0.000054000" latitude="41.043494000" longitude="-2.627267000" split="0"/>
            <markings/>
        </object>
        <object class="WED_AirportNode" id="113" parent_id="105">
            <sources/>
            <viewers/>
            <children/>
            <hierarchy hidden="0" locked="0" name="unnamed entity"/>
            <point ctrl_latitude_hi="-0.000044000" ctrl_latitude_lo="0.000044000" ctrl_longitude_hi="-0.000054000" ctrl_longitude_lo="0.000054000" latitude="41.043020000" longitude="-2.627842000" split="0"/>
            <markings/>
        </object>
        <object class="WED_AirportNode" id="114" parent_id="105">
            <sources/>
            <viewers/>
            <children/>
            <hierarchy hidden="0" locked="0" name="unnamed entity"/>
            <point ctrl_latitude_hi="0.000000000" ctrl_latitude_lo="0.000000000" ctrl_longitude_hi="0.000000000" ctrl_longitude_lo="0.000000000" latitude="41.042954000" longitude="-2.627923000" split="0"/>
            <markings/>
        </object>
        <object class="WED_AirportNode" id="115" parent_id="105">
            <sources/>
            <viewers/>
            <children/>
            <hierarchy hidden="0" locked="0" name="unnamed entity"/>
            <point ctrl_latitude_hi="0.000001000" ctrl_latitude_lo="-0.000001000" ctrl_longitude_hi="-0.000003000" ctrl_longitude_lo="0.000003000" latitude="41.042956000" longitude="-2.627928000" split="0"/>
            <markings/>
        </object>
        <object class="WED_AirportNode" id="116" parent_id="105">
            <sources/>
            <viewers/>
            <children/>
            <hierarchy hidden="0" locked="0" name="unnamed entity"/>
            <point ctrl_latitude_hi="0.000015000" ctrl_latitude_lo="-0.000015000" ctrl_longitude_hi="0.000009000" ctrl_longitude_lo="-0.000009000" latitude="41.042980000" longitude="-2.627918000" split="0"/>
            <markings/>
        </object>
        <object class="WED_AirportNode" id="117" parent_id="105">
            <sources/>
            <viewers/>
            <children/>
            <hierarchy hidden="0" locked="0" name="unnamed entity"/>
            <point ctrl_latitude_hi="0.000057000" ctrl_latitude_lo="-0.000057000" ctrl_longitude_hi="-0.000022000" ctrl_longitude_lo="0.000022000" latitude="41.043089000" longitude="-2.627937000" split="0"/>
            <markings/>
        </object>
        <object class="WED_AirportNode" id="118" parent_id="105">
            <sources/>
            <viewers/>
            <children/>
            <hierarchy hidden="0" locked="0" name="unnamed entity"/>
            <point ctrl_latitude_hi="0.000057000" ctrl_latitude_lo="-0.000057000" ctrl_longitude_hi="-0.000022000" ctrl_longitude_lo="0.000022000" latitude="41.043188000" longitude="-2.627973000" split="0"/>
            <markings/>
        </object>
        <object class="WED_AirportNode" id="119" parent_id="105">
            <sources/>
            <viewers/>
            <children/>
            <hierarchy hidden="0" locked="0" name="unnamed entity"/>
            <point ctrl_latitude_hi="0.000039000" ctrl_latitude_lo="-0.000039000" ctrl_longitude_hi="0.000060000" ctrl_longitude_lo="-0.000060000" latitude="41.043333000" longitude="-2.627916000" split="0"/>
            <markings/>
        </object>
        <object class="WED_Taxiway" id="120" parent_id="48">
            <sources/>
            <viewers/>
            <children>
                <child id="121"/>
            </children>
            <hierarchy hidden="0" locked="0" name="Apron"/>
            <taxiway heading="166.17" roughness="0.25" surface="Dirt"/>
        </object>
        <object class="WED_AirportChain" id="121" parent_id="120">
            <sources/>
            <viewers/>
            <children>
                <child id="122"/>
                <child id="123"/>
                <child id="124"/>
                <child id="125"/>
                <child id="126"/>
                <child id="127"/>
                <child id="128"/>
                <child id="129"/>
                <child id="130"/>
                <child id="131"/>
                <child id="132"/>
                <child id="133"/>
                <child id="134"/>
                <child id="135"/>
                <child id="136"/>
                <child id="137"/>
                <child id="138"/>
                <child id="139"/>
                <child id="140"/>
                <child id="141"/>
                <child id="142"/>
                <child id="143"/>
                <child id="144"/>
                <child id="145"/>
                <child id="146"/>
                <child id="147"/>
                <child id="148"/>
                <child id="149"/>
                <child id="150"/>
                <child id="151"/>
                <child id="152"/>
                <child id="153"/>
                <child id="154"/>
                <child id="155"/>
                <child id="156"/>
                <child id="157"/>
                <child id="158"/>
                <child id="159"/>
                <child id="160"/>
                <child id="161"/>
                <child id="162"/>
                <child id="163"/>
                <child id="164"/>
                <child id="165"/>
                <child id="166"/>
                <child id="167"/>
                <child id="168"/>
                <child id="169"/>
                <child id="170"/>
                <child id="171"/>
                <child id="172"/>
                <child id="173"/>
                <child id="174"/>
                <child id="175"/>
                <child id="176"/>
                <child id="177"/>
            </children>
            <hierarchy hidden="0" locked="0" name="unnamed entity"/>
            <airport_chain closed="1"/>
        </object>
        <object class="WED_AirportNode" id="122" parent_id="121">
            <sources/>
            <viewers/>
            <children/>
            <hierarchy hidden="0" locked="0" name="unnamed entity"/>
            <point ctrl_latitude_hi="0.000000000" ctrl_latitude_lo="0.000000000" ctrl_longitude_hi="0.000000000" ctrl_longitude_lo="0.000000000" latitude="41.043911000" longitude="-2.627608000" split="0"/>
            <markings/>
        </object>
        <object class="WED_AirportNode" id="123" parent_id="121">
            <sources/>
            <viewers/>
            <children/>
            <hierarchy hidden="0" locked="0" name="unnamed entity"/>
            <point ctrl_latitude_hi="0.000000000" ctrl_latitude_lo="0.000000000" ctrl_longitude_hi="0.000000000" ctrl_longitude_lo="0.000000000" latitude="41.043855000" longitude="-2.627688000" split="0"/>
            <markings/>
        </object>
        <object class="WED_AirportNode" id="124" parent_id="121">
            <sources/>
            <viewers/>
            <children/>
            <hierarchy hidden="0" locked="0" name="unnamed entity"/>
            <point ctrl_latitude_hi="0.000000000" ctrl_latitude_lo="0.000000000" ctrl_longitude_hi="0.000000000" ctrl_longitude_lo="0.000000000" latitude="41.043825000" longitude="-2.627861000" split="0"/>
            <markings/>
        </object>
        <object class="WED_AirportNode" id="125" parent_id="121">
            <sources/>
            <viewers/>
            <children/>
            <hierarchy hidden="0" locked="0" name="unnamed entity"/>
            <point ctrl_latitude_hi="0.000000000" ctrl_latitude_lo="0.000000000" ctrl_longitude_hi="0.000000000" ctrl_longitude_lo="0.000000000" latitude="41.043805000" longitude="-2.628007000" split="0"/>
            <markings/>
        </object>
        <object class="WED_AirportNode" id="126" parent_id="121">
            <sources/>
            <viewers/>
            <children/>
            <hierarchy hidden="0" locked="0" name="unnamed entity"/>
            <point ctrl_latitude_hi="0.000000000" ctrl_latitude_lo="0.000000000" ctrl_longitude_hi="0.000000000" ctrl_longitude_lo="0.000000000" latitude="41.043815000" longitude="-2.628114000" split="0"/>
            <markings/>
        </object>
        <object class="WED_AirportNode" id="127" parent_id="121">
            <sources/>
            <viewers/>
            <children/>
            <hierarchy hidden="0" locked="0" name="unnamed entity"/>
            <point ctrl_latitude_hi="0.000000000" ctrl_latitude_lo="0.000000000" ctrl_longitude_hi="0.000000000" ctrl_longitude_lo="0.000000000" latitude="41.043860000" longitude="-2.628234000" split="0"/>
            <markings/>
        </object>
        <object class="WED_AirportNode" id="128" parent_id="121">
            <sources/>
            <viewers/>
            <children/>
            <hierarchy hidden="0" locked="0" name="unnamed entity"/>
            <point ctrl_latitude_hi="0.000000000" ctrl_latitude_lo="0.000000000" ctrl_longitude_hi="0.000000000" ctrl_longitude_lo="0.000000000" latitude="41.043840000" longitude="-2.628307000" split="0"/>
            <markings/>
        </object>
        <object class="WED_AirportNode" id="129" parent_id="121">
            <sources/>
            <viewers/>
            <children/>
            <hierarchy hidden="0" locked="0" name="unnamed entity"/>
            <point ctrl_latitude_hi="0.000000000" ctrl_latitude_lo="0.000000000" ctrl_longitude_hi="0.000000000" ctrl_longitude_lo="0.000000000" latitude="41.043805000" longitude="-2.628400000" split="0"/>
            <markings/>
        </object>
        <object class="WED_AirportNode" id="130" parent_id="121">
            <sources/>
            <viewers/>
            <children/>
            <hierarchy hidden="0" locked="0" name="unnamed entity"/>
            <point ctrl_latitude_hi="0.000000000" ctrl_latitude_lo="0.000000000" ctrl_longitude_hi="0.000000000" ctrl_longitude_lo="0.000000000" latitude="41.042849000" longitude="-2.628108000" split="0"/>
            <markings/>
        </object>
        <object class="WED_AirportNode" id="131" parent_id="121">
            <sources/>
            <viewers/>
            <children/>
            <hierarchy hidden="0" locked="0" name="unnamed entity"/>
            <point ctrl_latitude_hi="0.000000000" ctrl_latitude_lo="0.000000000" ctrl_longitude_hi="0.000000000" ctrl_longitude_lo="0.000000000" latitude="41.042799000" longitude="-2.628327000" split="0"/>
            <markings/>
        </object>
        <object class="WED_AirportNode" id="132" parent_id="121">
            <sources/>
            <viewers/>
            <children/>
            <hierarchy hidden="0" locked="0" name="unnamed entity"/>
            <point ctrl_latitude_hi="0.000000000" ctrl_latitude_lo="0.000000000" ctrl_longitude_hi="0.000000000" ctrl_longitude_lo="0.000000000" latitude="41.042708000" longitude="-2.628321000" split="0"/>
            <markings/>
        </object>
        <object class="WED_AirportNode" id="133" parent_id="121">
            <sources/>
            <viewers/>
            <children/>
            <hierarchy hidden="0" locked="0" name="unnamed entity"/>
            <point ctrl_latitude_hi="0.000000000" ctrl_latitude_lo="0.000000000" ctrl_longitude_hi="0.000000000" ctrl_longitude_lo="0.000000000" latitude="41.042607000" longitude="-2.628301000" split="0"/>
            <markings/>
        </object>
        <object class="WED_AirportNode" id="134" parent_id="121">
            <sources/>
            <viewers/>
            <children/>
            <hierarchy hidden="0" locked="0" name="unnamed entity"/>
            <point ctrl_latitude_hi="0.000000000" ctrl_latitude_lo="0.000000000" ctrl_longitude_hi="0.000000000" ctrl_longitude_lo="0.000000000" latitude="41.042512000" longitude="-2.628307000" split="0"/>
            <markings/>
        </object>
        <object class="WED_AirportNode" id="135" parent_id="121">
            <sources/>
            <viewers/>
            <children/>
            <hierarchy hidden="0" locked="0" name="unnamed entity"/>
            <point ctrl_latitude_hi="0.000000000" ctrl_latitude_lo="0.000000000" ctrl_longitude_hi="0.000000000" ctrl_longitude_lo="0.000000000" latitude="41.042416000" longitude="-2.628354000" split="0"/>
            <markings/>
        </object>
        <object class="WED_AirportNode" id="136" parent_id="121">
            <sources/>
            <viewers/>
            <children/>
            <hierarchy hidden="0" locked="0" name="unnamed entity"/>
            <point ctrl_latitude_hi="0.000000000" ctrl_latitude_lo="0.000000000" ctrl_longitude_hi="0.000000000" ctrl_longitude_lo="0.000000000" latitude="41.042291000" longitude="-2.628427000" split="0"/>
            <markings/>
        </object>
        <object class="WED_AirportNode" id="137" parent_id="121">
            <sources/>
            <viewers/>
            <children/>
            <hierarchy hidden="0" locked="0" name="unnamed entity"/>
            <point ctrl_latitude_hi="0.000000000" ctrl_latitude_lo="0.000000000" ctrl_longitude_hi="0.000000000" ctrl_longitude_lo="0.000000000" latitude="41.042225000" longitude="-2.628347000" split="0"/>
            <markings/>
        </object>
        <object class="WED_AirportNode" id="138" parent_id="121">
            <sources/>
            <viewers/>
            <children/>
            <hierarchy hidden="0" locked="0" name="unnamed entity"/>
            <point ctrl_latitude_hi="0.000000000" ctrl_latitude_lo="0.000000000" ctrl_longitude_hi="0.000000000" ctrl_longitude_lo="0.000000000" latitude="41.042145000" longitude="-2.628241000" split="0"/>
            <markings/>
        </object>
        <object class="WED_AirportNode" id="139" parent_id="121">
            <sources/>
            <viewers/>
            <children/>
            <hierarchy hidden="0" locked="0" name="unnamed entity"/>
            <point ctrl_latitude_hi="0.000000000" ctrl_latitude_lo="0.000000000" ctrl_longitude_hi="0.000000000" ctrl_longitude_lo="0.000000000" latitude="41.042140000" longitude="-2.628114000" split="0"/>
            <markings/>
        </object>
        <object class="WED_AirportNode" id="140" parent_id="121">
            <sources/>
            <viewers/>
            <children/>
            <hierarchy hidden="0" locked="0" name="unnamed entity"/>
            <point ctrl_latitude_hi="0.000000000" ctrl_latitude_lo="0.000000000" ctrl_longitude_hi="0.000000000" ctrl_longitude_lo="0.000000000" latitude="41.042195000" longitude="-2.627921000" split="0"/>
            <markings/>
        </object>
        <object class="WED_AirportNode" id="141" parent_id="121">
            <sources/>
            <viewers/>
            <children/>
            <hierarchy hidden="0" locked="0" name="unnamed entity"/>
            <point ctrl_latitude_hi="0.000000000" ctrl_latitude_lo="0.000000000" ctrl_longitude_hi="0.000000000" ctrl_longitude_lo="0.000000000" latitude="41.042341000" longitude="-2.627694000" split="0"/>
            <markings/>
        </object>
        <object class="WED_AirportNode" id="142" parent_id="121">
            <sources/>
            <viewers/>
            <children/>
            <hierarchy hidden="0" locked="0" name="unnamed entity"/>
            <point ctrl_latitude_hi="0.000000000" ctrl_latitude_lo="0.000000000" ctrl_longitude_hi="0.000000000" ctrl_longitude_lo="0.000000000" latitude="41.042648000" longitude="-2.627304000" split="0"/>
            <markings/>
        </object>
        <object class="WED_AirportNode" id="143" parent_id="121">
            <sources/>
            <viewers/>
            <children/>
            <hierarchy hidden="0" locked="0" name="unnamed entity"/>
            <point ctrl_latitude_hi="0.000000000" ctrl_latitude_lo="0.000000000" ctrl_longitude_hi="0.000000000" ctrl_longitude_lo="0.000000000" latitude="41.042983000" longitude="-2.626962000" split="0"/>
            <markings/>
        </object>
        <object class="WED_AirportNode" id="144" parent_id="121">
            <sources/>
            <viewers/>
            <children/>
            <hierarchy hidden="0" locked="0" name="unnamed entity"/>
            <point ctrl_latitude_hi="0.000000000" ctrl_latitude_lo="0.000000000" ctrl_longitude_hi="0.000000000" ctrl_longitude_lo="0.000000000" latitude="41.043427000" longitude="-2.626540000" split="0"/>
            <markings/>
        </object>
        <object class="WED_AirportNode" id="145" parent_id="121">
            <sources/>
            <viewers/>
            <children/>
            <hierarchy hidden="0" locked="0" name="unnamed entity"/>
            <point ctrl_latitude_hi="0.000000000" ctrl_latitude_lo="0.000000000" ctrl_longitude_hi="0.000000000" ctrl_longitude_lo="0.000000000" latitude="41.043637000" longitude="-2.626396000" split="0"/>
            <markings/>
        </object>
        <object class="WED_AirportNode" id="146" parent_id="121">
            <sources/>
            <viewers/>
            <children/>
            <hierarchy hidden="0" locked="0" name="unnamed entity"/>
            <point ctrl_latitude_hi="0.000000000" ctrl_latitude_lo="0.000000000" ctrl_longitude_hi="0.000000000" ctrl_longitude_lo="0.000000000" latitude="41.043701000" longitude="-2.626369000" split="0"/>
            <markings/>
        </object>
        <object class="WED_AirportNode" id="147" parent_id="121">
            <sources/>
            <viewers/>
            <children/>
            <hierarchy hidden="0" locked="0" name="unnamed entity"/>
            <point ctrl_latitude_hi="0.000000000" ctrl_latitude_lo="0.000000000" ctrl_longitude_hi="0.000000000" ctrl_longitude_lo="0.000000000" latitude="41.043786000" longitude="-2.626390000" split="0"/>
            <markings/>
        </object>
        <object class="WED_AirportNode" id="148" parent_id="121">
            <sources/>
            <viewers/>
            <children/>
            <hierarchy hidden="0" locked="0" name="unnamed entity"/>
            <point ctrl_latitude_hi="0.000000000" ctrl_latitude_lo="0.000000000" ctrl_longitude_hi="0.000000000" ctrl_longitude_lo="0.000000000" latitude="41.043887000" longitude="-2.626465000" split="0"/>
            <markings/>
        </object>
        <object class="WED_AirportNode" id="149" parent_id="121">
            <sources/>
            <viewers/>
            <children/>
            <hierarchy hidden="0" locked="0" name="unnamed entity"/>
            <point ctrl_latitude_hi="0.000000000" ctrl_latitude_lo="0.000000000" ctrl_longitude_hi="0.000000000" ctrl_longitude_lo="0.000000000" latitude="41.044016000" longitude="-2.626540000" split="0"/>
            <markings/>
        </object>
        <object class="WED_AirportNode" id="150" parent_id="121">
            <sources/>
            <viewers/>
            <children/>
            <hierarchy hidden="0" locked="0" name="unnamed entity"/>
            <point ctrl_latitude_hi="0.000000000" ctrl_latitude_lo="0.000000000" ctrl_longitude_hi="0.000000000" ctrl_longitude_lo="0.000000000" latitude="41.044087000" longitude="-2.626608000" split="0"/>
            <markings/>
        </object>
        <object class="WED_AirportNode" id="151" parent_id="121">
            <sources/>
            <viewers/>
            <children/>
            <hierarchy hidden="0" locked="0" name="unnamed entity"/>
            <point ctrl_latitude_hi="0.000000000" ctrl_latitude_lo="0.000000000" ctrl_longitude_hi="0.000000000" ctrl_longitude_lo="0.000000000" latitude="41.044096000" longitude="-2.626665000" split="0"/>
            <markings/>
        </object>
        <object class="WED_AirportNode" id="152" parent_id="121">
            <sources/>
            <viewers/>
            <children/>
            <hierarchy hidden="0" locked="0" name="unnamed entity"/>
            <point ctrl_latitude_hi="0.000000000" ctrl_latitude_lo="0.000000000" ctrl_longitude_hi="0.000000000" ctrl_longitude_lo="0.000000000" latitude="41.044048000" longitude="-2.626722000" split="0"/>
            <markings/>
        </object>
        <object class="WED_AirportNode" id="153" parent_id="121">
            <sources/>
            <viewers/>
            <children/>
            <hierarchy hidden="0" locked="0" name="unnamed entity"/>
            <point ctrl_latitude_hi="0.000000000" ctrl_latitude_lo="0.000000000" ctrl_longitude_hi="0.000000000" ctrl_longitude_lo="0.000000000" latitude="41.044010000" longitude="-2.626798000" split="0"/>
            <markings/>
        </object>
        <object class="WED_AirportNode" id="154" parent_id="121">
            <sources/>
            <viewers/>
            <children/>
            <hierarchy hidden="0" locked="0" name="unnamed entity"/>
            <point ctrl_latitude_hi="0.000000000" ctrl_latitude_lo="0.000000000" ctrl_longitude_hi="0.000000000" ctrl_longitude_lo="0.000000000" latitude="41.044005000" longitude="-2.626855000" split="0"/>
            <markings/>
        </object>
        <object class="WED_AirportNode" id="155" parent_id="121">
            <sources/>
            <viewers/>
            <children/>
            <hierarchy hidden="0" locked="0" name="unnamed entity"/>
            <point ctrl_latitude_hi="0.000000000" ctrl_latitude_lo="0.000000000" ctrl_longitude_hi="0.000000000" ctrl_longitude_lo="0.000000000" latitude="41.043972000" longitude="-2.626913000" split="0"/>
            <markings/>
        </object>
        <object class="WED_AirportNode" id="156" parent_id="121">
            <sources/>
            <viewers/>
            <children/>
            <hierarchy hidden="0" locked="0" name="unnamed entity"/>
            <point ctrl_latitude_hi="0.000000000" ctrl_latitude_lo="0.000000000" ctrl_longitude_hi="0.000000000" ctrl_longitude_lo="0.000000000" latitude="41.043919000" longitude="-2.626989000" split="0"/>
            <markings/>
        </object>
        <object class="WED_AirportNode" id="157" parent_id="121">
            <sources/>
            <viewers/>
            <children/>
            <hierarchy hidden="0" locked="0" name="unnamed entity"/>
            <point ctrl_latitude_hi="0.000000000" ctrl_latitude_lo="0.000000000" ctrl_longitude_hi="0.000000000" ctrl_longitude_lo="0.000000000" latitude="41.043914000" longitude="-2.627071000" split="0"/>
            <markings/>
        </object>
        <object class="WED_AirportNode" id="158" parent_id="121">
            <sources/>
            <viewers/>
            <children/>
            <hierarchy hidden="0" locked="0" name="unnamed entity"/>
            <point ctrl_latitude_hi="0.000000000" ctrl_latitude_lo="0.000000000" ctrl_longitude_hi="0.000000000" ctrl_longitude_lo="0.000000000" latitude="41.043937000" longitude="-2.627086000" split="0"/>
            <markings/>
        </object>
        <object class="WED_AirportNode" id="159" parent_id="121">
            <sources/>
            <viewers/>
            <children/>
            <hierarchy hidden="0" locked="0" name="unnamed entity"/>
            <point ctrl_latitude_hi="0.000000000" ctrl_latitude_lo="0.000000000" ctrl_longitude_hi="0.000000000" ctrl_longitude_lo="0.000000000" latitude="41.044085000" longitude="-2.627148000" split="0"/>
            <markings/>
        </object>
        <object class="WED_AirportNode" id="160" parent_id="121">
            <sources/>
            <viewers/>
            <children/>
            <hierarchy hidden="0" locked="0" name="unnamed entity"/>
            <point ctrl_latitude_hi="0.000000000" ctrl_latitude_lo="0.000000000" ctrl_longitude_hi="0.000000000" ctrl_longitude_lo="0.000000000" latitude="41.044647000" longitude="-2.627509000" split="0"/>
            <markings/>
        </object>
        <object class="WED_AirportNode" id="161" parent_id="121">
            <sources/>
            <viewers/>
            <children/>
            <hierarchy hidden="0" locked="0" name="unnamed entity"/>
            <point ctrl_latitude_hi="0.000000000" ctrl_latitude_lo="0.000000000" ctrl_longitude_hi="0.000000000" ctrl_longitude_lo="0.000000000" latitude="41.044826000" longitude="-2.627602000" split="0"/>
            <markings/>
        </object>
        <object class="WED_AirportNode" id="162" parent_id="121">
            <sources/>
            <viewers/>
            <children/>
            <hierarchy hidden="0" locked="0" name="unnamed entity"/>
            <point ctrl_latitude_hi="0.000000000" ctrl_latitude_lo="0.000000000" ctrl_longitude_hi="0.000000000" ctrl_longitude_lo="0.000000000" latitude="41.045177000" longitude="-2.627819000" split="0"/>
            <markings/>
        </object>
        <object class="WED_AirportNode" id="163" parent_id="121">
            <sources/>
            <viewers/>
            <children/>
            <hierarchy hidden="0" locked="0" name="unnamed entity"/>
            <point ctrl_latitude_hi="0.000000000" ctrl_latitude_lo="0.000000000" ctrl_longitude_hi="0.000000000" ctrl_longitude_lo="0.000000000" latitude="41.045356000" longitude="-2.627943000" split="0"/>
            <markings/>
        </object>
        <object class="WED_AirportNode" id="164" parent_id="121">
            <sources/>
            <viewers/>
            <children/>
            <hierarchy hidden="0" locked="0" name="unnamed entity"/>
            <point ctrl_latitude_hi="0.000000000" ctrl_latitude_lo="0.000000000" ctrl_longitude_hi="0.000000000" ctrl_longitude_lo="0.000000000" latitude="41.045559000" longitude="-2.628087000" split="0"/>
            <markings/>
        </object>
        <object class="WED_AirportNode" id="165" parent_id="121">
            <sources/>
            <viewers/>
            <children/>
            <hierarchy hidden="0" locked="0" name="unnamed entity"/>
            <point ctrl_latitude_hi="0.000000000" ctrl_latitude_lo="0.000000000" ctrl_longitude_hi="0.000000000" ctrl_longitude_lo="0.000000000" latitude="41.045730000" longitude="-2.628149000" split="0"/>
            <markings/>
        </object>
        <object class="WED_AirportNode" id="166" parent_id="121">
            <sources/>
            <viewers/>
            <children/>
            <hierarchy hidden="0" locked="0" name="unnamed entity"/>
            <point ctrl_latitude_hi="0.000000000" ctrl_latitude_lo="0.000000000" ctrl_longitude_hi="0.000000000" ctrl_longitude_lo="0.000000000" latitude="41.045964000" longitude="-2.628293000" split="0"/>
            <markings/>
        </object>
        <object class="WED_AirportNode" id="167" parent_id="121">
            <sources/>
            <viewers/>
            <children/>
            <hierarchy hidden="0" locked="0" name="unnamed entity"/>
            <point ctrl_latitude_hi="0.000000000" ctrl_latitude_lo="0.000000000" ctrl_longitude_hi="0.000000000" ctrl_longitude_lo="0.000000000" latitude="41.046307000" longitude="-2.628500000" split="0"/>
            <markings/>
        </object>
        <object class="WED_AirportNode" id="168" parent_id="121">
            <sources/>
            <viewers/>
            <children/>
            <hierarchy hidden="0" locked="0" name="unnamed entity"/>
            <point ctrl_latitude_hi="0.000000000" ctrl_latitude_lo="0.000000000" ctrl_longitude_hi="0.000000000" ctrl_longitude_lo="0.000000000" latitude="41.046424000" longitude="-2.628583000" split="0"/>
            <markings/>
        </object>
        <object class="WED_AirportNode" id="169" parent_id="121">
            <sources/>
            <viewers/>
            <children/>
            <hierarchy hidden="0" locked="0" name="unnamed entity"/>
            <point ctrl_latitude_hi="0.000000000" ctrl_latitude_lo="0.000000000" ctrl_longitude_hi="0.000000000" ctrl_longitude_lo="0.000000000" latitude="41.046432000" longitude="-2.628675000" split="0"/>
            <markings/>
        </object>
        <object class="WED_AirportNode" id="170" parent_id="121">
            <sources/>
            <viewers/>
            <children/>
            <hierarchy hidden="0" locked="0" name="unnamed entity"/>
            <point ctrl_latitude_hi="0.000000000" ctrl_latitude_lo="0.000000000" ctrl_longitude_hi="0.000000000" ctrl_longitude_lo="0.000000000" latitude="41.046377000" longitude="-2.628696000" split="0"/>
            <markings/>
        </object>
        <object class="WED_AirportNode" id="171" parent_id="121">
            <sources/>
            <viewers/>
            <children/>
            <hierarchy hidden="0" locked="0" name="unnamed entity"/>
            <point ctrl_latitude_hi="0.000000000" ctrl_latitude_lo="0.000000000" ctrl_longitude_hi="0.000000000" ctrl_longitude_lo="0.000000000" latitude="41.046260000" longitude="-2.628644000" split="0"/>
            <markings/>
        </object>
        <object class="WED_AirportNode" id="172" parent_id="121">
            <sources/>
            <viewers/>
            <children/>
            <hierarchy hidden="0" locked="0" name="unnamed entity"/>
            <point ctrl_latitude_hi="0.000000000" ctrl_latitude_lo="0.000000000" ctrl_longitude_hi="0.000000000" ctrl_longitude_lo="0.000000000" latitude="41.046120000" longitude="-2.628562000" split="0"/>
            <markings/>
        </object>
        <object class="WED_AirportNode" id="173" parent_id="121">
            <sources/>
            <viewers/>
            <children/>
            <hierarchy hidden="0" locked="0" name="unnamed entity"/>
            <point ctrl_latitude_hi="0.000000000" ctrl_latitude_lo="0.000000000" ctrl_longitude_hi="0.000000000" ctrl_longitude_lo="0.000000000" latitude="41.045816000" longitude="-2.628438000" split="0"/>
            <markings/>
        </object>
        <object class="WED_AirportNode" id="174" parent_id="121">
            <sources/>
            <viewers/>
            <children/>
            <hierarchy hidden="0" locked="0" name="unnamed entity"/>
            <point ctrl_latitude_hi="0.000000000" ctrl_latitude_lo="0.000000000" ctrl_longitude_hi="0.000000000" ctrl_longitude_lo="0.000000000" latitude="41.045465000" longitude="-2.628190000" split="0"/>
            <markings/>
        </object>
        <object class="WED_AirportNode" id="175" parent_id="121">
            <sources/>
            <viewers/>
            <children/>
            <hierarchy hidden="0" locked="0" name="unnamed entity"/>
            <point ctrl_latitude_hi="0.000000000" ctrl_latitude_lo="0.000000000" ctrl_longitude_hi="0.000000000" ctrl_longitude_lo="0.000000000" latitude="41.044124000" longitude="-2.627530000" split="0"/>
            <markings/>
        </object>
        <object class="WED_AirportNode" id="176" parent_id="121">
            <sources/>
            <viewers/>
            <children/>
            <hierarchy hidden="0" locked="0" name="unnamed entity"/>
            <point ctrl_latitude_hi="0.000000000" ctrl_latitude_lo="0.000000000" ctrl_longitude_hi="0.000000000" ctrl_longitude_lo="0.000000000" latitude="41.044062000" longitude="-2.627521000" split="0"/>
            <markings/>
        </object>
        <object class="WED_AirportNode" id="177" parent_id="121">
            <sources/>
            <viewers/>
            <children/>
            <hierarchy hidden="0" locked="0" name="unnamed entity"/>
            <point ctrl_latitude_hi="0.000000000" ctrl_latitude_lo="0.000000000" ctrl_longitude_hi="0.000000000" ctrl_longitude_lo="0.000000000" latitude="41.043996000" longitude="-2.627535000" split="0"/>
            <markings/>
        </object>
        <object class="WED_Taxiway" id="178" parent_id="48">
            <sources/>
            <viewers/>
            <children>
                <child id="179"/>
            </children>
            <hierarchy hidden="0" locked="0" name="Apron"/>
            <taxiway heading="166.17" roughness="0.25" surface="Dirt"/>
        </object>
        <object class="WED_AirportChain" id="179" parent_id="178">
            <sources/>
            <viewers/>
            <children>
                <child id="180"/>
                <child id="181"/>
                <child id="182"/>
                <child id="183"/>
                <child id="184"/>
                <child id="185"/>
                <child id="186"/>
                <child id="187"/>
                <child id="188"/>
                <child id="189"/>
                <child id="190"/>
                <child id="191"/>
                <child id="192"/>
                <child id="193"/>
                <child id="194"/>
                <child id="195"/>
                <child id="196"/>
                <child id="197"/>
                <child id="198"/>
                <child id="199"/>
                <child id="200"/>
                <child id="201"/>
                <child id="202"/>
                <child id="203"/>
                <child id="204"/>
                <child id="205"/>
                <child id="206"/>
                <child id="207"/>
                <child id="208"/>
                <child id="209"/>
                <child id="210"/>
                <child id="211"/>
                <child id="212"/>
                <child id="213"/>
                <child id="214"/>
                <child id="215"/>
                <child id="216"/>
                <child id="217"/>
                <child id="218"/>
                <child id="219"/>
                <child id="220"/>
                <child id="221"/>
                <child id="222"/>
                <child id="223"/>
                <child id="224"/>
                <child id="225"/>
                <child id="226"/>
                <child id="227"/>
                <child id="228"/>
                <child id="229"/>
                <child id="230"/>
                <child id="231"/>
                <child id="232"/>
                <child id="233"/>
                <child id="234"/>
                <child id="235"/>
                <child id="236"/>
                <child id="237"/>
                <child id="238"/>
                <child id="239"/>
                <child id="240"/>
                <child id="241"/>
                <child id="242"/>
                <child id="243"/>
            </children>
            <hierarchy hidden="0" locked="0" name="unnamed entity"/>
            <airport_chain closed="1"/>
        </object>
        <object class="WED_AirportNode" id="180" parent_id="179">
            <sources/>
            <viewers/>
            <children/>
            <hierarchy hidden="0" locked="0" name="unnamed entity"/>
            <point ctrl_latitude_hi="0.000000000" ctrl_latitude_lo="0.000000000" ctrl_longitude_hi="0.000000000" ctrl_longitude_lo="0.000000000" latitude="41.047909000" longitude="-2.629960000" split="0"/>
            <markings/>
        </object>
        <object class="WED_AirportNode" id="181" parent_id="179">
            <sources/>
            <viewers/>
            <children/>
            <hierarchy hidden="0" locked="0" name="unnamed entity"/>
            <point ctrl_latitude_hi="0.000000000" ctrl_latitude_lo="0.000000000" ctrl_longitude_hi="0.000000000" ctrl_longitude_lo="0.000000000" latitude="41.047735000" longitude="-2.629897000" split="0"/>
            <markings/>
        </object>
        <object class="WED_AirportNode" id="182" parent_id="179">
            <sources/>
            <viewers/>
            <children/>
            <hierarchy hidden="0" locked="0" name="unnamed entity"/>
            <point ctrl_latitude_hi="0.000000000" ctrl_latitude_lo="0.000000000" ctrl_longitude_hi="0.000000000" ctrl_longitude_lo="0.000000000" latitude="41.047616000" longitude="-2.629876000" split="0"/>
            <markings/>
        </object>
        <object class="WED_AirportNode" id="183" parent_id="179">
            <sources/>
            <viewers/>
            <children/>
            <hierarchy hidden="0" locked="0" name="unnamed entity"/>
            <point ctrl_latitude_hi="0.000000000" ctrl_latitude_lo="0.000000000" ctrl_longitude_hi="0.000000000" ctrl_longitude_lo="0.000000000" latitude="41.047481000" longitude="-2.629876000" split="0"/>
            <markings/>
        </object>
        <object class="WED_AirportNode" id="184" parent_id="179">
            <sources/>
            <viewers/>
            <children/>
            <hierarchy hidden="0" locked="0" name="unnamed entity"/>
            <point ctrl_latitude_hi="0.000000000" ctrl_latitude_lo="0.000000000" ctrl_longitude_hi="0.000000000" ctrl_longitude_lo="0.000000000" latitude="41.047347000" longitude="-2.629834000" split="0"/>
            <markings/>
        </object>
        <object class="WED_AirportNode" id="185" parent_id="179">
            <sources/>
            <viewers/>
            <children/>
            <hierarchy hidden="0" locked="0" name="unnamed entity"/>
            <point ctrl_latitude_hi="0.000000000" ctrl_latitude_lo="0.000000000" ctrl_longitude_hi="0.000000000" ctrl_longitude_lo="0.000000000" latitude="41.047149000" longitude="-2.629824000" split="0"/>
            <markings/>
        </object>
        <object class="WED_AirportNode" id="186" parent_id="179">
            <sources/>
            <viewers/>
            <children/>
            <hierarchy hidden="0" locked="0" name="unnamed entity"/>
            <point ctrl_latitude_hi="0.000000000" ctrl_latitude_lo="0.000000000" ctrl_longitude_hi="0.000000000" ctrl_longitude_lo="0.000000000" latitude="41.046951000" longitude="-2.629803000" split="0"/>
            <markings/>
        </object>
        <object class="WED_AirportNode" id="187" parent_id="179">
            <sources/>
            <viewers/>
            <children/>
            <hierarchy hidden="0" locked="0" name="unnamed entity"/>
            <point ctrl_latitude_hi="0.000000000" ctrl_latitude_lo="0.000000000" ctrl_longitude_hi="0.000000000" ctrl_longitude_lo="0.000000000" latitude="41.046793000" longitude="-2.629782000" split="0"/>
            <markings/>
        </object>
        <object class="WED_AirportNode" id="188" parent_id="179">
            <sources/>
            <viewers/>
            <children/>
            <hierarchy hidden="0" locked="0" name="unnamed entity"/>
            <point ctrl_latitude_hi="0.000000000" ctrl_latitude_lo="0.000000000" ctrl_longitude_hi="0.000000000" ctrl_longitude_lo="0.000000000" latitude="41.046642000" longitude="-2.629834000" split="0"/>
            <markings/>
        </object>
        <object class="WED_AirportNode" id="189" parent_id="179">
            <sources/>
            <viewers/>
            <children/>
            <hierarchy hidden="0" locked="0" name="unnamed entity"/>
            <point ctrl_latitude_hi="0.000000000" ctrl_latitude_lo="0.000000000" ctrl_longitude_hi="0.000000000" ctrl_longitude_lo="0.000000000" latitude="41.046564000" longitude="-2.629820000" split="0"/>
            <markings/>
        </object>
        <object class="WED_AirportNode" id="190" parent_id="179">
            <sources/>
            <viewers/>
            <children/>
            <hierarchy hidden="0" locked="0" name="unnamed entity"/>
            <point ctrl_latitude_hi="0.000000000" ctrl_latitude_lo="0.000000000" ctrl_longitude_hi="0.000000000" ctrl_longitude_lo="0.000000000" latitude="41.046547000" longitude="-2.629666000" split="0"/>
            <markings/>
        </object>
        <object class="WED_AirportNode" id="191" parent_id="179">
            <sources/>
            <viewers/>
            <children/>
            <hierarchy hidden="0" locked="0" name="unnamed entity"/>
            <point ctrl_latitude_hi="0.000000000" ctrl_latitude_lo="0.000000000" ctrl_longitude_hi="0.000000000" ctrl_longitude_lo="0.000000000" latitude="41.046484000" longitude="-2.629593000" split="0"/>
            <markings/>
        </object>
        <object class="WED_AirportNode" id="192" parent_id="179">
            <sources/>
            <viewers/>
            <children/>
            <hierarchy hidden="0" locked="0" name="unnamed entity"/>
            <point ctrl_latitude_hi="0.000000000" ctrl_latitude_lo="0.000000000" ctrl_longitude_hi="0.000000000" ctrl_longitude_lo="0.000000000" latitude="41.046381000" longitude="-2.629551000" split="0"/>
            <markings/>
        </object>
        <object class="WED_AirportNode" id="193" parent_id="179">
            <sources/>
            <viewers/>
            <children/>
            <hierarchy hidden="0" locked="0" name="unnamed entity"/>
            <point ctrl_latitude_hi="0.000000000" ctrl_latitude_lo="0.000000000" ctrl_longitude_hi="0.000000000" ctrl_longitude_lo="0.000000000" latitude="41.046365000" longitude="-2.629624000" split="0"/>
            <markings/>
        </object>
        <object class="WED_AirportNode" id="194" parent_id="179">
            <sources/>
            <viewers/>
            <children/>
            <hierarchy hidden="0" locked="0" name="unnamed entity"/>
            <point ctrl_latitude_hi="0.000000000" ctrl_latitude_lo="0.000000000" ctrl_longitude_hi="0.000000000" ctrl_longitude_lo="0.000000000" latitude="41.046349000" longitude="-2.629677000" split="0"/>
            <markings/>
        </object>
        <object class="WED_AirportNode" id="195" parent_id="179">
            <sources/>
            <viewers/>
            <children/>
            <hierarchy hidden="0" locked="0" name="unnamed entity"/>
            <point ctrl_latitude_hi="0.000000000" ctrl_latitude_lo="0.000000000" ctrl_longitude_hi="0.000000000" ctrl_longitude_lo="0.000000000" latitude="41.046302000" longitude="-2.629761000" split="0"/>
            <markings/>
        </object>
        <object class="WED_AirportNode" id="196" parent_id="179">
            <sources/>
            <viewers/>
            <children/>
            <hierarchy hidden="0" locked="0" name="unnamed entity"/>
            <point ctrl_latitude_hi="0.000000000" ctrl_latitude_lo="0.000000000" ctrl_longitude_hi="0.000000000" ctrl_longitude_lo="0.000000000" latitude="41.046167000" longitude="-2.629782000" split="0"/>
            <markings/>
        </object>
        <object class="WED_AirportNode" id="197" parent_id="179">
            <sources/>
            <viewers/>
            <children/>
            <hierarchy hidden="0" locked="0" name="unnamed entity"/>
            <point ctrl_latitude_hi="0.000000000" ctrl_latitude_lo="0.000000000" ctrl_longitude_hi="0.000000000" ctrl_longitude_lo="0.000000000" latitude="41.046073000" longitude="-2.629740000" split="0"/>
            <markings/>
        </object>
        <object class="WED_AirportNode" id="198" parent_id="179">
            <sources/>
            <viewers/>
            <children/>
            <hierarchy hidden="0" locked="0" name="unnamed entity"/>
            <point ctrl_latitude_hi="0.000000000" ctrl_latitude_lo="0.000000000" ctrl_longitude_hi="0.000000000" ctrl_longitude_lo="0.000000000" latitude="41.045938000" longitude="-2.629635000" split="0"/>
            <markings/>
        </object>
        <object class="WED_AirportNode" id="199" parent_id="179">
            <sources/>
            <viewers/>
            <children/>
            <hierarchy hidden="0" locked="0" name="unnamed entity"/>
            <point ctrl_latitude_hi="0.000000000" ctrl_latitude_lo="0.000000000" ctrl_longitude_hi="0.000000000" ctrl_longitude_lo="0.000000000" latitude="41.045914000" longitude="-2.629499000" split="0"/>
            <markings/>
        </object>
        <object class="WED_AirportNode" id="200" parent_id="179">
            <sources/>
            <viewers/>
            <children/>
            <hierarchy hidden="0" locked="0" name="unnamed entity"/>
            <point ctrl_latitude_hi="0.000000000" ctrl_latitude_lo="0.000000000" ctrl_longitude_hi="0.000000000" ctrl_longitude_lo="0.000000000" latitude="41.045914000" longitude="-2.629415000" split="0"/>
            <markings/>
        </object>
        <object class="WED_AirportNode" id="201" parent_id="179">
            <sources/>
            <viewers/>
            <children/>
            <hierarchy hidden="0" locked="0" name="unnamed entity"/>
            <point ctrl_latitude_hi="0.000000000" ctrl_latitude_lo="0.000000000" ctrl_longitude_hi="0.000000000" ctrl_longitude_lo="0.000000000" latitude="41.045867000" longitude="-2.629362000" split="0"/>
            <markings/>
        </object>
        <object class="WED_AirportNode" id="202" parent_id="179">
            <sources/>
            <viewers/>
            <children/>
            <hierarchy hidden="0" locked="0" name="unnamed entity"/>
            <point ctrl_latitude_hi="0.000000000" ctrl_latitude_lo="0.000000000" ctrl_longitude_hi="0.000000000" ctrl_longitude_lo="0.000000000" latitude="41.045769000" longitude="-2.629290000" split="0"/>
            <markings/>
        </object>
        <object class="WED_AirportNode" id="203" parent_id="179">
            <sources/>
            <viewers/>
            <children/>
            <hierarchy hidden="0" locked="0" name="unnamed entity"/>
            <point ctrl_latitude_hi="0.000000000" ctrl_latitude_lo="0.000000000" ctrl_longitude_hi="0.000000000" ctrl_longitude_lo="0.000000000" latitude="41.045086000" longitude="-2.629084000" split="0"/>
            <markings/>
        </object>
        <object class="WED_AirportNode" id="204" parent_id="179">
            <sources/>
            <viewers/>
            <children/>
            <hierarchy hidden="0" locked="0" name="unnamed entity"/>
            <point ctrl_latitude_hi="0.000000000" ctrl_latitude_lo="0.000000000" ctrl_longitude_hi="0.000000000" ctrl_longitude_lo="0.000000000" latitude="41.044990000" longitude="-2.629108000" split="0"/>
            <markings/>
        </object>
        <object class="WED_AirportNode" id="205" parent_id="179">
            <sources/>
            <viewers/>
            <children/>
